timestamp,latitude,longitude,altitude_m,speed_ms,battery_pct,gps_satellites,hdop,signal_dbm,pitch_deg,roll_deg,yaw_deg,wind_speed_ms,temperature_c
2026-05-01 09:00:00,52.40005,-1.49981,118.4,16.22,95.1,16,1.58,-63.9,2.82,1.79,0.69,5.16,9.7
2026-05-01 09:00:01,52.40007,-1.499895,118.6,17.4,95.0,11,1.17,-58.5,3.09,0.29,358.24,2.38,11.8
2026-05-01 09:00:02,52.400232,-1.499848,124.1,18.8,95.3,12,1.17,-58.7,4.16,0.52,2.62,3.52,13.4
2026-05-01 09:00:03,52.400402,-1.499818,120.0,18.14,94.5,16,1.08,-65.3,3.61,1.77,1.9,5.52,11.6
2026-05-01 09:00:04,52.40031,-1.499736,121.6,16.72,94.0,13,1.22,-67.4,2.85,-0.14,2.23,3.47,13.1
2026-05-01 09:00:05,52.400393,-1.499603,118.4,18.01,94.9,14,1.29,-68.3,3.6,1.13,3.03,5.24,11.7
2026-05-01 09:00:06,52.400658,-1.499306,118.4,15.7,94.9,14,1.38,-66.2,0.38,1.03,1.44,3.11,12.2
2026-05-01 09:00:07,52.40066,-1.499171,122.2,19.73,95.5,17,0.98,-67.2,-0.25,-1.93,3.66,2.42,10.9
2026-05-01 09:00:08,52.40062,-1.499269,117.3,17.69,94.1,10,1.16,-62.2,2.24,2.21,1.56,1.61,10.9
2026-05-01 09:00:09,52.400805,-1.49891,119.2,19.68,95.2,16,1.27,-62.9,2.1,-2.13,0.46,5.97,12.7
2026-05-01 09:00:10,52.400787,-1.498937,120.1,17.21,95.8,17,1.29,-62.0,1.18,1.38,0.99,2.29,12.9
2026-05-01 09:00:11,52.400871,-1.498762,120.2,17.21,94.4,17,1.2,-58.7,3.24,-2.28,1.05,5.12,12.0
2026-05-01 09:00:12,52.401025,-1.498505,119.6,16.85,93.9,11,1.28,-55.7,-0.79,0.9,0.16,2.5,10.8
2026-05-01 09:00:13,52.400893,-1.498465,120.8,19.31,94.3,10,1.08,-64.4,1.2,2.79,4.56,5.98,12.0
2026-05-01 09:00:14,52.400995,-1.49847,121.4,16.94,94.5,15,1.43,-59.5,1.27,-0.32,1.99,7.31,13.3
2026-05-01 09:00:15,52.401194,-1.498422,121.5,18.97,94.7,12,1.35,-66.8,-0.45,-0.38,1.69,1.47,13.7
2026-05-01 09:00:16,52.401233,-1.498436,118.0,17.43,94.1,13,1.0,-59.1,4.24,0.92,2.38,2.37,11.7
2026-05-01 09:00:17,52.401449,-1.498182,119.4,15.04,95.1,16,1.04,-59.7,-0.04,-0.49,7.66,5.16,10.3
2026-05-01 09:00:18,52.40141,-1.49802,122.4,17.14,93.7,14,1.04,-60.0,1.12,2.73,359.54,4.77,12.8
2026-05-01 09:00:19,52.401443,-1.497986,121.8,16.23,93.4,11,1.3,-64.5,3.36,0.29,0.21,5.17,11.7
2026-05-01 09:00:20,52.401814,-1.49779,117.3,18.05,94.8,14,1.01,-68.3,2.97,-0.48,359.24,3.14,12.9
2026-05-01 09:00:21,52.401728,-1.497658,120.7,16.21,93.0,16,1.15,-72.0,0.34,-0.81,1.64,6.98,12.3
2026-05-01 09:00:22,52.401841,-1.497577,116.0,19.39,94.0,15,1.27,-65.2,3.02,-1.4,2.69,4.18,11.1
2026-05-01 09:00:23,52.401775,-1.497508,120.1,17.86,95.7,10,1.19,-57.3,2.43,-0.94,1.37,2.17,12.1
2026-05-01 09:00:24,52.401947,-1.497315,123.8,17.73,94.1,16,1.24,-66.5,5.5,-0.53,1.32,3.62,13.3
2026-05-01 09:00:25,52.402096,-1.497176,118.1,18.98,93.5,10,1.04,-61.1,2.61,-0.73,2.79,2.19,11.9
2026-05-01 09:00:26,52.402053,-1.497219,118.3,19.45,94.0,13,1.29,-60.8,1.79,-0.99,1.6,6.39,11.0
2026-05-01 09:00:27,52.402289,-1.496857,121.5,17.97,93.9,11,1.11,-66.4,0.72,3.15,3.32,3.01,10.4
2026-05-01 09:00:28,52.402275,-1.496897,116.9,16.84,94.0,15,1.15,-58.4,0.88,-1.55,5.03,4.74,11.2
2026-05-01 09:00:29,52.402389,-1.496774,118.7,15.34,94.2,11,1.24,-79.5,0.76,0.22,4.26,3.29,11.6
2026-05-01 09:00:30,52.402441,-1.496594,121.2,16.97,93.3,13,1.22,-71.1,4.06,0.89,4.76,3.08,12.8
2026-05-01 09:00:31,52.40277,-1.49653,118.7,17.07,94.6,15,1.2,-69.6,2.03,0.95,5.27,1.13,10.9
2026-05-01 09:00:32,52.402667,-1.496347,119.5,18.16,93.9,17,1.09,-69.1,2.85,-0.09,3.77,4.9,13.6
2026-05-01 09:00:33,52.402646,-1.496303,121.5,17.48,94.1,15,1.16,-63.3,4.27,-0.36,2.98,5.95,10.7
2026-05-01 09:00:34,52.402917,-1.496281,120.8,19.03,93.4,10,1.2,-63.5,-1.54,0.68,1.86,2.63,14.3
2026-05-01 09:00:35,52.402796,-1.496073,120.5,17.08,94.3,10,0.99,-63.0,3.92,0.4,2.72,1.68,13.7
2026-05-01 09:00:36,52.403023,-1.496112,119.3,17.91,93.5,10,1.13,-62.0,2.08,-0.39,2.55,5.2,12.1
2026-05-01 09:00:37,52.402889,-1.495876,120.7,19.78,93.7,14,1.26,-69.8,2.65,-2.34,5.17,1.53,10.4
2026-05-01 09:00:38,52.403036,-1.495779,119.8,18.51,93.1,17,1.01,-71.1,0.76,-0.7,4.5,5.83,11.9
2026-05-01 09:00:39,52.403271,-1.495685,120.9,17.91,93.0,12,1.37,-63.0,0.87,-1.72,5.3,2.64,11.6
2026-05-01 09:00:40,52.403409,-1.495566,119.0,17.1,93.8,16,1.39,-68.2,2.73,-1.0,1.68,2.35,10.7
2026-05-01 09:00:41,52.403436,-1.49563,119.6,17.05,93.2,10,1.01,-72.9,5.58,0.05,6.97,4.37,12.3
2026-05-01 09:00:42,52.40349,-1.495386,118.0,16.72,92.9,12,1.4,-60.1,3.5,0.54,3.35,2.44,11.2
2026-05-01 09:00:43,52.403555,-1.49521,119.9,17.19,93.0,12,1.18,-58.0,3.9,2.67,2.1,2.94,11.3
2026-05-01 09:00:44,52.403521,-1.495092,118.4,19.13,93.6,11,1.26,-57.2,1.71,-0.81,3.52,4.53,11.8
2026-05-01 09:00:45,52.40368,-1.4951,117.8,17.67,92.9,13,1.13,-64.1,1.1,1.16,9.47,0.36,11.4
2026-05-01 09:00:46,52.403789,-1.494759,120.5,15.98,93.2,14,1.34,-61.9,0.83,0.46,3.83,6.46,14.1
2026-05-01 09:00:47,52.404025,-1.494861,120.4,20.65,93.2,12,1.26,-58.2,1.27,1.94,4.05,4.07,11.5
2026-05-01 09:00:48,52.404037,-1.494567,121.6,18.48,92.2,16,1.08,-68.2,-1.08,0.86,4.42,2.06,12.4
2026-05-01 09:00:49,52.403909,-1.49451,119.1,15.89,92.4,14,1.03,-59.4,0.91,-1.51,4.61,2.47,12.1
2026-05-01 09:00:50,52.404201,-1.494506,120.8,17.34,93.2,11,0.98,-63.6,1.16,-2.58,3.44,5.49,12.4
2026-05-01 09:00:51,52.404214,-1.494153,121.1,18.17,92.6,10,1.23,-60.4,1.74,0.47,5.39,4.9,12.4
2026-05-01 09:00:52,52.404268,-1.494338,120.9,20.56,93.5,15,1.29,-64.1,2.2,-0.79,7.35,6.08,12.9
2026-05-01 09:00:53,52.40448,-1.494016,118.3,16.34,93.4,12,1.3,-58.5,2.54,-1.47,5.93,2.98,12.3
2026-05-01 09:00:54,52.404606,-1.493897,120.3,19.46,93.3,13,1.18,-63.9,1.98,-1.9,3.18,4.44,12.2
2026-05-01 09:00:55,52.404679,-1.493953,120.7,20.1,93.8,15,1.03,-72.4,1.13,0.24,4.81,4.64,12.1
2026-05-01 09:00:56,52.404585,-1.493635,120.0,17.06,92.8,11,1.1,-57.7,-0.95,2.26,4.5,5.04,11.9
2026-05-01 09:00:57,52.404722,-1.493688,115.8,17.58,93.1,14,1.37,-69.7,1.14,-0.61,5.81,5.69,11.1
2026-05-01 09:00:58,52.404869,-1.493523,120.3,16.45,92.5,16,1.13,-58.7,0.54,0.89,8.46,2.92,11.9
2026-05-01 09:00:59,52.405017,-1.493415,124.4,17.69,93.9,17,1.22,-65.5,2.7,-0.15,5.61,3.83,12.2
2026-05-01 09:01:00,52.404955,-1.493343,119.3,17.95,93.7,10,1.04,-59.1,3.36,-1.93,5.83,3.08,12.4
2026-05-01 09:01:01,52.405068,-1.493137,118.5,18.99,92.6,14,1.25,-59.3,3.41,1.1,9.66,3.92,12.2
2026-05-01 09:01:02,52.405059,-1.493028,120.7,19.64,92.8,13,1.13,-62.8,3.14,-1.64,7.96,5.05,11.8
2026-05-01 09:01:03,52.405133,-1.493171,120.6,16.88,93.2,12,1.36,-62.5,1.8,0.03,7.45,1.52,11.9
2026-05-01 09:01:04,52.405418,-1.492755,122.4,15.05,92.4,13,1.32,-62.9,1.22,-0.51,10.32,5.66,11.4
2026-05-01 09:01:05,52.405555,-1.49294,117.5,17.97,92.1,14,1.13,-75.1,0.88,1.34,7.48,2.29,12.3
2026-05-01 09:01:06,52.405496,-1.492559,121.5,18.44,92.9,14,1.18,-64.4,-0.26,-1.59,2.63,3.54,11.8
2026-05-01 09:01:07,52.405687,-1.492439,121.2,18.37,92.4,15,1.12,-70.6,3.49,0.59,8.37,5.87,12.2
2026-05-01 09:01:08,52.405706,-1.492549,119.7,17.51,92.4,13,0.99,-64.1,1.74,-1.26,3.62,4.49,13.0
2026-05-01 09:01:09,52.405689,-1.49237,120.7,18.19,91.9,13,1.07,-70.7,0.13,-0.77,7.81,4.51,11.3
2026-05-01 09:01:10,52.405873,-1.492328,122.1,20.27,91.4,13,1.23,-70.9,0.76,-5.45,3.58,2.23,12.6
2026-05-01 09:01:11,52.406074,-1.492128,121.7,18.57,92.4,10,1.25,-57.0,0.7,3.14,6.17,2.43,12.0
2026-05-01 09:01:12,52.406,-1.492026,117.7,17.44,92.7,16,1.22,-59.7,2.06,0.83,6.48,5.41,14.0
2026-05-01 09:01:13,52.406243,-1.491806,121.6,17.25,92.0,14,1.15,-65.0,3.6,-1.15,5.76,3.12,11.8
2026-05-01 09:01:14,52.405908,-1.491642,119.9,17.75,92.8,11,1.34,-64.1,1.48,-1.69,6.71,3.26,12.7
2026-05-01 09:01:15,52.406336,-1.491522,120.1,20.46,91.7,10,1.21,-66.2,-1.38,-0.74,9.57,5.45,12.0
2026-05-01 09:01:16,52.406346,-1.491607,120.1,17.73,91.5,10,1.31,-62.2,1.72,1.08,6.18,2.43,10.6
2026-05-01 09:01:17,52.40639,-1.491461,119.7,17.97,92.0,10,0.93,-68.4,1.77,-2.84,8.79,4.4,11.5
2026-05-01 09:01:18,52.406513,-1.491497,122.4,17.28,91.9,15,0.8,-60.0,1.66,-0.21,5.87,4.06,12.9
2026-05-01 09:01:19,52.406388,-1.491298,119.8,19.65,92.3,17,1.24,-66.3,1.06,2.66,7.53,4.0,11.6
2026-05-01 09:01:20,52.406648,-1.49101,117.8,20.94,91.5,16,0.99,-67.1,2.33,-1.7,8.65,3.22,9.8
2026-05-01 09:01:21,52.406789,-1.490833,119.2,18.68,92.5,16,1.17,-64.9,2.1,0.12,6.11,3.13,12.0
2026-05-01 09:01:22,52.406985,-1.491007,120.4,18.12,92.8,11,1.15,-68.0,1.96,3.3,5.58,2.38,10.9
2026-05-01 09:01:23,52.406869,-1.490832,122.5,18.06,91.8,17,1.44,-63.4,2.62,0.95,9.29,4.72,12.1
2026-05-01 09:01:24,52.406923,-1.490664,121.2,14.42,92.4,13,1.26,-67.7,1.36,0.19,10.65,3.0,13.6
2026-05-01 09:01:25,52.407037,-1.490522,118.3,19.12,91.2,15,1.22,-62.7,1.27,0.76,8.35,5.45,12.8
2026-05-01 09:01:26,52.407262,-1.49052,125.0,18.2,92.2,14,1.33,-58.9,4.07,-0.6,7.69,3.66,13.5
2026-05-01 09:01:27,52.407287,-1.490286,120.5,18.64,92.1,17,1.26,-68.6,2.84,1.95,9.02,2.41,11.4
2026-05-01 09:01:28,52.407284,-1.490264,122.6,16.93,92.0,12,1.13,-65.7,3.24,-0.6,8.92,3.64,11.9
2026-05-01 09:01:29,52.407472,-1.490107,119.7,17.42,91.5,15,1.36,-62.7,3.84,-2.94,9.39,3.38,11.0
2026-05-01 09:01:30,52.407514,-1.48994,121.1,17.38,90.0,12,1.03,-67.2,2.79,-0.59,3.95,5.51,11.3
2026-05-01 09:01:31,52.407684,-1.489883,121.7,19.53,91.1,14,1.25,-62.7,3.39,-1.45,6.97,3.45,11.1
2026-05-01 09:01:32,52.407601,-1.489816,122.4,17.43,91.1,11,0.97,-62.2,-0.37,-0.42,7.51,3.59,10.7
2026-05-01 09:01:33,52.407722,-1.489672,122.1,21.12,90.9,16,1.23,-59.6,2.31,-0.39,9.61,6.12,13.4
2026-05-01 09:01:34,52.407798,-1.489559,121.7,18.65,91.4,12,1.23,-68.0,1.73,1.8,9.78,4.76,9.9
2026-05-01 09:01:35,52.407775,-1.489476,119.4,16.09,91.1,10,1.45,-69.7,4.52,1.04,10.78,6.49,13.4
2026-05-01 09:01:36,52.408034,-1.489353,118.9,17.81,90.9,15,0.97,-66.5,3.39,0.39,10.12,5.89,13.2
2026-05-01 09:01:37,52.408114,-1.489056,120.7,17.02,90.7,17,1.11,-69.8,1.05,-0.0,7.1,2.67,12.5
2026-05-01 09:01:38,52.408172,-1.489049,121.9,14.71,90.8,17,1.32,-62.2,2.56,-1.59,12.7,5.48,10.9
2026-05-01 09:01:39,52.408231,-1.489023,119.6,20.4,91.7,12,1.25,-70.8,2.25,-3.27,12.45,6.29,10.4
2026-05-01 09:01:40,52.408196,-1.488813,122.1,19.05,90.8,14,1.23,-53.3,2.68,0.17,7.49,6.3,11.5
2026-05-01 09:01:41,52.408379,-1.488805,122.9,18.8,90.8,16,1.06,-58.5,0.47,1.19,10.77,5.48,12.6
2026-05-01 09:01:42,52.40847,-1.488543,118.2,18.25,90.8,10,1.11,-64.9,2.54,-0.16,9.01,5.45,12.0
2026-05-01 09:01:43,52.408508,-1.488512,118.3,15.93,91.2,17,1.39,-60.7,1.66,-0.8,10.58,3.55,11.0
2026-05-01 09:01:44,52.408655,-1.488449,119.7,17.27,91.2,12,1.19,-73.2,2.42,0.7,12.51,2.74,13.1
2026-05-01 09:01:45,52.408795,-1.488282,120.6,19.26,89.4,16,1.26,-52.4,0.91,-0.12,14.77,3.47,13.7
2026-05-01 09:01:46,52.409027,-1.488373,119.0,16.42,91.4,14,1.18,-68.0,1.12,2.53,12.11,1.5,11.8
2026-05-01 09:01:47,52.408939,-1.488217,122.7,14.2,91.6,11,1.02,-65.6,3.76,1.85,11.3,6.01,12.1
2026-05-01 09:01:48,52.409031,-1.488113,120.8,17.66,90.3,14,1.34,-74.3,0.42,1.44,10.13,3.58,10.5
2026-05-01 09:01:49,52.409081,-1.487868,120.1,17.79,90.3,11,1.28,-62.6,0.53,1.14,11.27,5.94,11.6
2026-05-01 09:01:50,52.40898,-1.487598,117.1,18.2,90.5,17,1.55,-70.5,1.92,-1.94,13.73,2.15,12.5
2026-05-01 09:01:51,52.409252,-1.487437,117.4,19.09,90.3,16,1.05,-64.5,0.84,0.99,11.02,5.62,12.4
2026-05-01 09:01:52,52.409345,-1.487485,120.6,18.96,90.8,16,1.32,-67.7,0.67,0.56,9.43,3.26,11.5
2026-05-01 09:01:53,52.409668,-1.487387,115.7,18.39,89.6,10,1.0,-70.4,2.16,0.91,8.07,2.07,11.7
2026-05-01 09:01:54,52.409486,-1.487506,122.0,19.79,90.0,14,1.22,-69.0,-0.26,0.74,12.43,6.44,11.6
2026-05-01 09:01:55,52.409619,-1.487269,119.7,15.72,91.3,13,1.35,-63.9,0.49,0.68,12.0,5.66,11.7
2026-05-01 09:01:56,52.409669,-1.487183,126.5,18.76,90.0,17,0.89,-71.4,5.08,4.05,10.31,4.32,12.4
2026-05-01 09:01:57,52.409639,-1.487055,124.6,18.94,91.1,15,1.17,-68.7,2.69,-0.11,13.76,4.05,10.0
2026-05-01 09:01:58,52.409953,-1.486898,119.6,16.14,90.6,13,1.12,-61.7,0.88,1.4,10.96,4.66,11.9
2026-05-01 09:01:59,52.409997,-1.486818,119.8,15.75,89.5,17,1.09,-52.0,2.63,-0.71,11.64,4.29,12.3
2026-05-01 09:02:00,52.410085,-1.486857,122.0,16.88,90.6,13,1.26,-62.6,2.85,1.19,11.97,2.81,11.4
2026-05-01 09:02:01,52.409998,-1.486473,123.4,17.01,90.2,13,1.37,-69.6,3.49,1.41,11.4,3.38,11.5
2026-05-01 09:02:02,52.410313,-1.486544,116.7,19.13,90.0,15,1.18,-66.8,1.81,0.55,12.68,6.94,11.5
2026-05-01 09:02:03,52.410116,-1.486302,116.4,17.08,90.3,13,1.23,-64.8,3.46,2.5,14.61,8.01,11.5
2026-05-01 09:02:04,52.410398,-1.486007,118.8,16.72,90.4,11,1.22,-66.7,-1.06,-1.33,10.12,6.34,12.0
2026-05-01 09:02:05,52.410642,-1.486195,121.2,17.08,90.5,14,1.2,-60.5,0.42,-0.73,13.48,4.72,12.1
2026-05-01 09:02:06,52.410407,-1.486245,121.0,19.68,90.7,16,1.04,-63.9,2.25,0.32,12.95,3.49,9.9
2026-05-01 09:02:07,52.410533,-1.48591,122.1,18.02,90.3,10,1.37,-60.5,2.49,1.32,13.01,2.8,12.7
2026-05-01 09:02:08,52.410683,-1.48566,117.6,17.73,89.3,13,1.24,-66.6,0.63,0.27,14.55,2.9,11.7
2026-05-01 09:02:09,52.410706,-1.485463,115.4,17.83,89.7,16,1.26,-58.4,2.39,1.93,13.01,3.17,13.9
2026-05-01 09:02:10,52.410684,-1.48567,121.7,19.94,91.4,13,1.08,-65.8,1.06,-0.99,13.97,7.23,10.8
2026-05-01 09:02:11,52.41093,-1.485387,118.3,16.88,90.3,17,1.13,-69.9,1.58,-1.71,14.54,6.71,11.1
2026-05-01 09:02:12,52.4109,-1.485372,116.0,19.97,91.0,10,1.17,-54.1,3.54,0.46,12.2,5.12,11.8
2026-05-01 09:02:13,52.411137,-1.485225,120.3,18.32,90.5,17,0.97,-74.1,3.36,-0.12,13.91,2.56,12.4
2026-05-01 09:02:14,52.411081,-1.484838,121.6,17.76,89.9,10,0.95,-68.7,0.5,0.81,12.91,5.34,10.0
2026-05-01 09:02:15,52.411411,-1.485142,119.8,21.75,89.9,13,1.11,-68.1,0.41,-0.04,13.24,3.64,11.2
2026-05-01 09:02:16,52.411261,-1.484855,119.1,16.42,89.7,11,1.28,-52.5,1.38,-0.51,12.96,0.77,12.6
2026-05-01 09:02:17,52.411391,-1.484723,119.7,17.47,88.8,16,1.1,-56.0,1.96,-0.11,14.65,4.43,11.1
2026-05-01 09:02:18,52.411588,-1.48455,119.3,16.15,89.6,10,1.05,-57.5,1.01,0.04,13.97,2.74,13.4
2026-05-01 09:02:19,52.411467,-1.484537,117.3,19.43,90.2,14,1.08,-66.7,3.56,-0.46,14.7,2.79,11.5
2026-05-01 09:02:20,52.411696,-1.484405,118.6,20.53,89.3,16,1.13,-52.9,2.52,-0.3,13.97,3.62,11.1
2026-05-01 09:02:21,52.411887,-1.484364,121.0,20.5,89.7,14,1.15,-63.2,2.61,-0.61,10.9,3.25,12.6
2026-05-01 09:02:22,52.411679,-1.484187,120.6,19.84,89.9,16,1.52,-60.1,0.1,1.28,14.27,3.95,13.6
2026-05-01 09:02:23,52.411942,-1.484137,120.3,17.7,89.0,11,1.36,-64.1,3.75,0.29,14.44,3.88,12.4
2026-05-01 09:02:24,52.412033,-1.483929,118.0,17.45,89.2,17,1.35,-65.2,-2.23,3.39,14.89,1.19,13.3
2026-05-01 09:02:25,52.412168,-1.483917,119.6,15.49,88.8,15,1.38,-66.3,3.25,0.24,13.32,6.28,13.7
2026-05-01 09:02:26,52.41205,-1.483731,115.6,21.05,88.9,17,1.05,-66.0,3.4,-0.83,12.22,2.52,11.1
2026-05-01 09:02:27,52.412125,-1.483661,120.4,18.7,88.6,12,1.02,-62.0,1.35,4.01,15.96,2.57,12.9
2026-05-01 09:02:28,52.412392,-1.483434,122.9,17.26,88.8,11,1.03,-63.2,3.91,0.62,14.26,3.51,10.5
2026-05-01 09:02:29,52.412453,-1.48344,117.1,19.99,89.9,13,1.4,-65.2,1.91,1.49,15.25,3.84,12.4
2026-05-01 09:02:30,52.412532,-1.483501,118.8,16.54,88.7,12,1.12,-57.5,2.09,0.89,14.45,6.19,11.9
2026-05-01 09:02:31,52.412625,-1.483087,120.7,18.61,89.2,13,1.01,-79.8,2.51,0.93,15.1,4.4,13.2
2026-05-01 09:02:32,52.412606,-1.483192,122.5,17.74,88.8,14,1.14,-62.5,6.78,0.8,14.31,4.85,13.2
2026-05-01 09:02:33,52.41278,-1.483056,119.1,18.96,89.6,10,1.16,-61.4,4.02,-1.65,13.37,4.41,12.6
2026-05-01 09:02:34,52.41287,-1.482939,118.6,17.9,89.7,16,1.24,-59.3,3.05,0.55,16.36,4.35,12.3
2026-05-01 09:02:35,52.412852,-1.482631,116.1,15.82,89.4,13,1.24,-65.3,0.63,-1.99,14.3,4.46,12.5
2026-05-01 09:02:36,52.413194,-1.482871,120.2,18.11,89.1,14,1.08,-64.0,2.22,-0.26,15.94,1.1,12.1
2026-05-01 09:02:37,52.413138,-1.482232,124.1,19.57,88.8,11,1.3,-60.1,0.78,-1.09,16.53,3.63,11.9
2026-05-01 09:02:38,52.413055,-1.482329,120.6,17.96,88.3,13,1.1,-57.5,3.23,0.54,14.64,5.74,13.4
2026-05-01 09:02:39,52.413323,-1.482301,120.0,19.16,89.8,17,1.18,-66.5,2.21,0.5,13.5,9.91,13.6
2026-05-01 09:02:40,52.413243,-1.482218,120.6,16.43,88.4,14,1.3,-63.7,0.31,0.72,20.86,2.19,11.9
2026-05-01 09:02:41,52.413503,-1.482073,120.0,17.96,89.1,10,1.1,-56.6,2.12,0.43,15.05,4.63,12.2
2026-05-01 09:02:42,52.413623,-1.481938,118.4,17.06,89.2,16,1.11,-75.6,0.73,-0.91,17.46,3.14,12.1
2026-05-01 09:02:43,52.413509,-1.481814,121.6,19.12,88.4,13,1.29,-68.5,2.23,-0.39,20.19,7.07,10.4
2026-05-01 09:02:44,52.413771,-1.481712,120.5,18.05,89.1,15,1.07,-57.7,0.71,1.38,17.99,1.97,11.7
2026-05-01 09:02:45,52.413799,-1.481648,120.0,19.04,89.0,14,1.14,-59.5,2.04,1.6,15.91,4.94,13.6
2026-05-01 09:02:46,52.413923,-1.481565,118.0,19.63,89.4,13,1.28,-62.4,3.13,-1.72,16.47,1.89,11.3
2026-05-01 09:02:47,52.414114,-1.481449,122.6,19.04,88.3,10,1.51,-67.2,1.92,-2.3,15.04,3.52,14.1
2026-05-01 09:02:48,52.413983,-1.481342,121.3,18.41,87.8,16,1.29,-69.4,1.41,-1.09,18.57,3.95,13.2
2026-05-01 09:02:49,52.414016,-1.481098,118.9,16.5,88.2,13,1.27,-68.0,2.3,1.57,18.04,5.6,12.4
2026-05-01 09:02:50,52.414086,-1.481041,122.0,18.0,88.5,13,1.28,-57.3,3.05,1.82,15.98,2.38,12.6
2026-05-01 09:02:51,52.414176,-1.481283,119.0,17.2,88.4,16,1.04,-68.1,0.34,-1.39,15.03,5.0,11.1
2026-05-01 09:02:52,52.414334,-1.480813,118.4,17.48,88.1,15,1.22,-64.5,2.39,0.46,14.57,4.03,11.7
2026-05-01 09:02:53,52.414459,-1.480748,118.5,17.44,87.3,14,1.2,-68.8,3.98,2.75,19.28,4.41,13.4
2026-05-01 09:02:54,52.414536,-1.480658,116.5,16.53,88.5,12,1.25,-60.8,2.86,0.62,17.65,5.44,11.4
2026-05-01 09:02:55,52.414674,-1.480584,120.9,15.06,89.2,17,1.22,-67.7,2.09,2.13,17.94,2.08,13.1
2026-05-01 09:02:56,52.414676,-1.480321,116.3,17.0,88.4,16,1.26,-65.5,2.96,1.5,15.96,5.22,10.6
2026-05-01 09:02:57,52.414904,-1.480228,117.5,18.29,88.4,13,1.15,-73.4,2.68,-1.37,14.78,3.15,10.8
2026-05-01 09:02:58,52.414815,-1.480289,115.8,15.98,88.4,12,1.21,-73.1,3.13,-0.28,19.74,5.64,13.9
2026-05-01 09:02:59,52.415197,-1.480059,119.8,18.02,88.2,11,1.02,-65.0,-1.04,0.05,17.99,4.5,12.0
2026-05-01 09:03:00,52.415071,-1.480086,119.7,20.85,88.5,13,1.15,-71.6,-0.33,0.16,19.82,3.69,11.5
2026-05-01 09:03:01,52.415006,-1.480016,119.3,19.53,88.2,12,1.41,-54.5,3.51,1.37,17.34,3.11,13.4
2026-05-01 09:03:02,52.415068,-1.479829,117.9,20.47,87.8,11,1.25,-75.3,-0.26,0.61,17.74,5.23,13.2
2026-05-01 09:03:03,52.415307,-1.479569,117.7,18.59,87.5,15,1.2,-69.0,2.6,-4.4,19.74,5.89,12.9
2026-05-01 09:03:04,52.41532,-1.479449,120.9,19.75,87.7,14,1.48,-64.9,1.47,-1.97,19.87,3.2,11.4
2026-05-01 09:03:05,52.415497,-1.479382,118.9,16.91,88.0,13,1.0,-66.8,0.51,-3.28,20.11,2.3,11.7
2026-05-01 09:03:06,52.415556,-1.479249,120.6,17.03,87.6,14,1.03,-70.5,2.52,0.26,18.02,5.04,12.3
2026-05-01 09:03:07,52.415585,-1.479159,118.2,13.89,87.9,11,1.46,-69.8,2.3,0.36,19.94,1.83,12.7
2026-05-01 09:03:08,52.415591,-1.479164,120.4,19.78,87.9,14,1.21,-70.0,5.17,0.42,21.03,2.04,11.5
2026-05-01 09:03:09,52.415607,-1.478945,122.6,20.31,88.1,14,1.16,-66.4,1.06,-1.44,18.7,2.41,12.2
2026-05-01 09:03:10,52.415797,-1.478797,121.2,17.17,88.2,16,1.02,-55.2,4.16,1.01,17.98,3.38,12.3
2026-05-01 09:03:11,52.416011,-1.478691,119.2,17.62,87.6,10,1.27,-64.6,2.53,1.07,21.8,2.0,13.3
2026-05-01 09:03:12,52.41603,-1.478536,120.5,16.87,86.9,11,1.28,-59.1,1.01,-1.88,17.9,1.09,12.8
2026-05-01 09:03:13,52.415968,-1.478473,119.5,18.57,87.3,14,1.04,-62.5,3.2,-2.2,20.57,2.3,10.5
2026-05-01 09:03:14,52.416193,-1.478397,120.0,19.69,87.5,17,1.18,-59.4,2.85,-0.0,19.29,4.96,11.8
2026-05-01 09:03:15,52.416298,-1.478214,119.3,15.39,86.5,12,1.15,-79.0,2.05,2.69,15.83,2.09,11.1
2026-05-01 09:03:16,52.416254,-1.478213,119.7,18.61,88.1,11,1.24,-66.5,2.4,2.55,21.87,3.49,12.6
2026-05-01 09:03:17,52.416441,-1.478187,120.4,17.58,87.4,10,1.03,-58.5,1.1,0.85,14.2,6.92,12.9
2026-05-01 09:03:18,52.416515,-1.478004,118.0,18.17,87.5,13,1.39,-67.9,0.76,-1.09,15.84,3.93,12.1
2026-05-01 09:03:19,52.416478,-1.477951,118.0,18.69,87.9,15,1.34,-56.2,3.14,1.33,20.97,4.51,11.7
2026-05-01 09:03:20,52.416712,-1.477833,117.2,17.72,86.9,14,1.15,-57.6,1.66,-0.68,21.07,2.58,12.1
2026-05-01 09:03:21,52.416815,-1.477669,116.8,17.84,87.5,12,1.17,-67.3,1.88,-1.15,18.84,7.25,12.2
2026-05-01 09:03:22,52.416951,-1.477622,117.6,17.68,87.1,10,1.18,-67.5,2.42,-3.22,20.51,3.19,11.4
2026-05-01 09:03:23,52.417031,-1.477463,120.3,19.46,87.0,11,1.08,-70.1,2.4,0.15,15.25,3.66,10.8
2026-05-01 09:03:24,52.416872,-1.47751,118.2,18.63,86.7,15,1.13,-68.1,-0.14,-0.94,21.83,5.98,9.9
2026-05-01 09:03:25,52.416999,-1.477188,121.0,18.33,87.9,15,1.16,-71.2,3.93,0.14,21.01,3.73,13.3
2026-05-01 09:03:26,52.417228,-1.477098,120.1,16.09,86.8,17,1.44,-62.9,2.18,-3.45,20.52,4.07,12.5
2026-05-01 09:03:27,52.417311,-1.477069,116.1,17.43,87.3,14,1.34,-72.3,1.7,0.25,20.75,3.58,12.4
2026-05-01 09:03:28,52.417394,-1.47681,121.3,19.35,86.0,10,1.34,-62.0,2.65,-3.65,21.8,3.59,13.3
2026-05-01 09:03:29,52.417812,-1.476671,121.6,18.06,87.5,10,1.26,-61.9,2.35,1.63,20.85,4.56,10.7
2026-05-01 09:03:30,52.417567,-1.476814,118.0,18.99,87.4,12,1.03,-73.3,3.15,0.78,17.26,4.83,10.3
2026-05-01 09:03:31,52.417707,-1.476619,120.8,20.65,86.8,13,1.19,-57.3,2.81,-0.42,25.5,3.04,12.4
2026-05-01 09:03:32,52.417772,-1.476508,118.3,19.56,86.6,13,1.35,-62.4,3.08,0.84,23.61,2.85,12.3
2026-05-01 09:03:33,52.417825,-1.476414,120.2,18.14,86.9,16,1.01,-61.3,4.03,-1.47,18.74,3.09,10.3
2026-05-01 09:03:34,52.417812,-1.476126,117.5,17.23,87.8,13,1.3,-68.8,3.33,0.11,20.72,1.9,12.4
2026-05-01 09:03:35,52.418003,-1.476117,116.4,14.17,85.8,16,1.55,-61.9,1.76,1.19,21.04,1.61,11.6
2026-05-01 09:03:36,52.417933,-1.476013,119.2,17.75,87.0,15,1.36,-59.4,0.32,-4.64,23.77,4.45,11.2
2026-05-01 09:03:37,52.41807,-1.476076,119.8,17.51,86.1,15,1.41,-65.5,4.5,-0.67,17.39,5.41,11.7
2026-05-01 09:03:38,52.418128,-1.475701,119.2,18.59,86.5,17,1.23,-55.0,1.64,-0.03,20.81,5.31,9.6
2026-05-01 09:03:39,52.418268,-1.475777,117.6,17.77,86.4,11,1.35,-64.8,1.29,-0.29,18.39,0.43,11.4
2026-05-01 09:03:40,52.418575,-1.475536,119.2,17.52,86.2,15,1.09,-59.3,-0.61,2.19,21.44,3.63,11.3
2026-05-01 09:03:41,52.41824,-1.475403,120.5,15.33,86.4,15,1.32,-63.5,2.51,-1.69,21.17,2.35,12.6
2026-05-01 09:03:42,52.418579,-1.475184,119.9,16.59,85.8,10,1.3,-62.1,2.22,-0.93,22.37,4.22,11.8
2026-05-01 09:03:43,52.418432,-1.475339,120.4,18.71,86.8,11,1.24,-73.4,-0.27,-2.87,21.1,3.37,12.6
2026-05-01 09:03:44,52.41863,-1.475399,118.7,20.57,85.4,10,1.4,-63.1,2.68,2.27,20.91,4.89,9.5
2026-05-01 09:03:45,52.418869,-1.474968,122.3,17.85,86.5,12,1.12,-68.7,1.25,-0.37,23.75,3.97,11.2
2026-05-01 09:03:46,52.41885,-1.474695,117.6,18.49,86.0,16,1.17,-69.2,6.04,-0.66,23.52,1.16,12.6
2026-05-01 09:03:47,52.418819,-1.47464,121.0,19.43,85.6,16,1.21,-56.3,1.15,-0.08,23.82,2.55,11.7
2026-05-01 09:03:48,52.418939,-1.474632,122.4,16.78,86.2,12,1.05,-66.1,1.35,0.95,22.46,4.01,12.8
2026-05-01 09:03:49,52.419162,-1.474591,121.0,18.55,85.3,16,1.23,-70.0,0.69,0.52,21.77,4.14,10.2
2026-05-01 09:03:50,52.419104,-1.47435,119.6,16.89,86.1,11,0.94,-66.8,3.92,3.97,22.78,1.89,12.7
2026-05-01 09:03:51,52.419282,-1.474416,118.9,19.3,85.3,11,1.36,-71.5,1.44,0.68,24.12,1.7,11.4
2026-05-01 09:03:52,52.419349,-1.47416,122.1,18.23,86.2,15,1.21,-57.8,0.91,-0.7,18.86,4.08,11.3
2026-05-01 09:03:53,52.419362,-1.474046,117.2,18.45,85.5,16,1.12,-68.5,3.06,-0.84,24.1,1.89,13.0
2026-05-01 09:03:54,52.419725,-1.47388,118.1,16.83,85.7,12,1.07,-62.4,-0.07,-0.59,24.03,1.5,13.2
2026-05-01 09:03:55,52.419658,-1.473598,119.2,19.06,86.0,14,1.16,-58.2,2.94,-2.25,23.64,3.33,13.0
2026-05-01 09:03:56,52.419475,-1.473724,122.5,21.13,85.4,13,1.3,-67.5,4.67,0.06,23.31,3.27,14.0
2026-05-01 09:03:57,52.41978,-1.473703,120.8,16.49,85.7,15,1.28,-62.3,2.85,1.18,18.58,2.68,13.3
2026-05-01 09:03:58,52.419778,-1.473543,118.1,17.49,85.0,13,1.09,-70.2,2.96,-0.92,22.93,2.94,11.2
2026-05-01 09:03:59,52.420013,-1.473607,119.4,18.35,86.0,12,1.07,-52.8,3.31,-1.21,27.49,4.02,12.1
2026-05-01 09:04:00,52.419932,-1.473388,118.8,19.18,86.5,16,1.3,-60.3,4.56,2.27,24.04,2.92,11.6
2026-05-01 09:04:01,52.420083,-1.473248,118.6,17.16,87.0,16,1.09,-66.0,3.81,-2.14,23.5,4.11,14.0
2026-05-01 09:04:02,52.420228,-1.473149,122.0,13.75,85.6,13,1.21,-68.9,2.66,-3.1,24.25,3.43,13.1
2026-05-01 09:04:03,52.420348,-1.47297,117.3,20.04,85.9,14,1.22,-65.6,3.36,-1.73,25.02,4.25,11.8
2026-05-01 09:04:04,52.420225,-1.472956,123.2,19.14,84.6,16,1.25,-66.7,0.67,-2.31,25.73,5.32,12.9
2026-05-01 09:04:05,52.420395,-1.472651,121.7,15.39,86.2,14,1.33,-55.2,3.16,0.58,24.06,5.26,10.8
2026-05-01 09:04:06,52.420464,-1.472651,122.2,17.09,85.8,10,1.01,-71.1,0.49,-0.54,25.46,5.93,12.3
2026-05-01 09:04:07,52.420529,-1.472541,119.1,20.35,85.1,11,0.91,-64.3,1.45,-0.33,28.07,5.26,11.1
2026-05-01 09:04:08,52.420855,-1.472462,119.7,20.17,86.0,13,1.11,-65.1,-2.62,1.73,26.83,4.36,10.3
2026-05-01 09:04:09,52.420802,-1.472302,117.1,19.41,85.2,16,1.47,-65.6,2.6,-1.04,29.59,3.35,12.8
2026-05-01 09:04:10,52.420719,-1.472124,119.0,17.74,85.0,14,1.5,-65.5,1.03,1.16,23.7,3.42,12.9
2026-05-01 09:04:11,52.42102,-1.472182,121.0,18.12,85.5,17,1.47,-65.6,3.67,2.27,28.47,2.68,12.5
2026-05-01 09:04:12,52.421224,-1.47205,122.6,17.8,84.7,17,1.17,-60.6,2.59,-0.68,23.63,4.01,11.8
2026-05-01 09:04:13,52.421198,-1.471904,117.8,19.69,85.7,16,0.93,-62.0,3.69,1.11,26.02,5.05,10.7
2026-05-01 09:04:14,52.421026,-1.471897,119.3,16.69,84.6,11,0.85,-62.9,0.37,-0.36,26.88,2.91,10.8
2026-05-01 09:04:15,52.421213,-1.471733,119.7,16.79,84.6,11,1.11,-80.2,3.56,1.39,24.49,3.94,11.0
2026-05-01 09:04:16,52.421472,-1.471587,117.2,19.52,84.6,10,1.17,-63.5,5.16,-2.36,25.79,2.98,11.8
2026-05-01 09:04:17,52.421358,-1.471341,121.2,17.93,85.4,11,1.4,-73.3,3.15,-2.47,27.54,4.31,13.1
2026-05-01 09:04:18,52.421556,-1.471291,118.6,20.07,84.7,11,1.33,-61.8,3.19,-0.59,24.39,3.18,13.1
2026-05-01 09:04:19,52.421673,-1.471187,119.6,16.99,84.2,15,1.23,-57.6,2.25,-1.33,29.25,2.89,10.4
2026-05-01 09:04:20,52.421586,-1.47101,119.1,17.92,84.6,17,1.07,-69.6,1.21,-0.78,23.25,2.98,11.3
2026-05-01 09:04:21,52.421756,-1.470998,118.4,16.62,84.8,12,1.06,-66.3,3.14,-0.33,29.99,4.75,11.3
2026-05-01 09:04:22,52.421521,-1.470834,120.0,18.01,84.2,17,1.24,-68.0,-0.26,1.08,28.22,3.85,9.5
2026-05-01 09:04:23,52.421826,-1.470772,119.6,15.78,84.2,17,1.3,-58.8,1.37,-0.61,26.14,3.36,12.6
2026-05-01 09:04:24,52.421987,-1.470624,119.3,17.27,85.8,16,1.26,-64.5,-0.66,-1.24,25.61,4.39,11.8
2026-05-01 09:04:25,52.421971,-1.470597,118.5,15.85,84.3,17,1.04,-56.4,0.94,-0.53,25.5,3.38,11.9
2026-05-01 09:04:26,52.422342,-1.470672,120.6,19.04,84.5,10,1.3,-62.9,2.96,-1.15,26.34,5.69,13.3
2026-05-01 09:04:27,52.422119,-1.47033,123.3,19.07,84.4,10,1.26,-63.8,2.76,-1.4,26.62,2.54,12.1
2026-05-01 09:04:28,52.422302,-1.470063,120.3,15.4,84.4,13,1.04,-64.7,2.08,-2.42,29.33,3.72,11.6
2026-05-01 09:04:29,52.422442,-1.470002,122.0,20.0,84.8,11,1.08,-60.9,2.26,0.1,30.85,1.89,12.6
2026-05-01 09:04:30,52.422657,-1.469887,117.2,21.75,85.0,13,1.3,-73.7,-0.83,-0.85,27.41,3.48,13.1
2026-05-01 09:04:31,52.422452,-1.469749,120.3,18.07,84.3,15,1.16,-64.6,1.44,1.45,25.42,1.48,12.3
2026-05-01 09:04:32,52.422796,-1.469752,117.8,17.04,83.8,17,1.44,-65.4,0.98,-2.17,26.12,5.12,12.7
2026-05-01 09:04:33,52.422764,-1.46963,117.0,22.24,85.0,14,1.28,-61.4,1.01,-0.81,26.95,5.15,11.9
2026-05-01 09:04:34,52.422748,-1.4696,118.5,16.02,84.3,11,1.13,-65.9,2.9,2.72,25.35,5.18,11.9
2026-05-01 09:04:35,52.422976,-1.469459,122.4,18.03,85.2,14,1.2,-70.2,0.71,-1.41,25.16,4.04,12.1
2026-05-01 09:04:36,52.423033,-1.469255,121.9,18.27,83.1,17,1.21,-65.0,1.09,-0.35,31.81,2.68,11.2
2026-05-01 09:04:37,52.423036,-1.469085,120.5,20.02,84.3,12,1.09,-70.4,-1.13,-1.82,28.32,2.8,11.4
2026-05-01 09:04:38,52.423187,-1.469108,116.9,18.54,85.1,15,1.06,-74.6,1.56,-2.02,26.15,6.3,13.4
2026-05-01 09:04:39,52.423224,-1.469028,119.6,17.25,84.0,11,1.31,-61.4,0.37,2.32,29.55,6.15,14.0
2026-05-01 09:04:40,52.423358,-1.468872,120.6,16.57,84.0,13,1.33,-62.1,2.12,0.26,25.66,4.18,13.6
2026-05-01 09:04:41,52.423496,-1.4687,120.4,17.49,84.2,13,1.29,-62.7,0.57,0.2,25.92,3.23,10.7
2026-05-01 09:04:42,52.423672,-1.468794,116.3,16.49,83.7,11,1.43,-58.5,2.16,-2.54,26.61,6.05,10.6
2026-05-01 09:04:43,52.423473,-1.468768,118.2,18.07,83.8,16,1.12,-68.3,1.78,0.54,31.62,2.96,10.8
2026-05-01 09:04:44,52.423893,-1.468482,119.9,17.15,83.8,13,1.45,-72.2,4.51,1.74,27.91,4.34,12.1
2026-05-01 09:04:45,52.423568,-1.468438,121.1,15.76,83.6,17,1.06,-65.4,2.75,1.72,23.63,6.03,9.2
2026-05-01 09:04:46,52.423831,-1.468255,115.6,19.88,84.5,17,1.05,-66.7,-0.76,1.0,31.04,2.75,11.4
2026-05-01 09:04:47,52.423989,-1.468108,119.7,17.25,84.1,16,0.94,-69.2,0.1,-1.69,28.1,5.24,13.4
2026-05-01 09:04:48,52.424041,-1.468028,120.3,16.1,83.9,11,1.13,-65.4,2.08,0.47,25.12,4.78,13.0
2026-05-01 09:04:49,52.424034,-1.467726,121.7,17.75,84.2,10,1.12,-68.1,0.61,1.0,28.28,3.94,11.5
2026-05-01 09:04:50,52.424159,-1.467727,121.4,18.1,83.6,13,1.28,-74.2,-2.45,-2.69,30.06,2.51,11.6
2026-05-01 09:04:51,52.424214,-1.467619,121.2,15.38,83.3,16,1.24,-67.2,4.02,-1.68,29.92,2.91,12.6
2026-05-01 09:04:52,52.424288,-1.467475,118.4,18.5,83.3,11,1.02,-70.7,3.08,1.33,32.81,4.43,12.9
2026-05-01 09:04:53,52.424515,-1.46754,116.2,16.43,83.6,11,1.14,-63.8,2.78,1.31,27.61,1.86,11.5
2026-05-01 09:04:54,52.424549,-1.467211,119.2,20.57,83.0,16,1.14,-68.3,1.09,-2.32,29.51,4.2,11.8
2026-05-01 09:04:55,52.424528,-1.467212,122.0,18.79,83.3,13,0.93,-59.4,2.64,1.19,28.12,4.81,11.4
2026-05-01 09:04:56,52.42477,-1.467026,122.8,17.4,83.2,10,1.05,-57.0,0.94,0.14,26.53,5.48,10.7
2026-05-01 09:04:57,52.424794,-1.467089,121.4,16.88,84.5,13,1.08,-61.6,2.31,1.17,31.49,1.9,11.8
2026-05-01 09:04:58,52.424928,-1.467026,120.9,17.84,82.0,11,1.42,-72.8,0.62,-0.95,30.74,5.97,11.7
2026-05-01 09:04:59,52.424993,-1.466678,120.8,18.92,83.3,10,1.23,-57.5,4.27,0.97,30.48,6.54,10.7
2026-05-01 09:05:00,52.424931,-1.46661,118.9,17.96,84.2,17,1.3,-57.1,-0.36,1.27,30.87,4.62,12.6
2026-05-01 09:05:01,52.425041,-1.466627,119.7,17.67,83.3,14,0.98,-64.9,3.85,-0.53,28.75,2.44,12.5
2026-05-01 09:05:02,52.425255,-1.466513,123.3,18.09,83.6,12,1.38,-58.4,2.06,0.03,28.21,3.51,12.7
2026-05-01 09:05:03,52.425325,-1.466202,118.1,17.09,83.3,13,1.4,-67.8,1.27,-0.97,30.39,3.93,11.2
2026-05-01 09:05:04,52.425345,-1.466322,123.2,17.49,82.8,15,0.9,-74.3,2.25,2.48,32.74,4.41,10.0
2026-05-01 09:05:05,52.425443,-1.465928,119.4,14.87,82.0,11,1.09,-68.8,3.1,-0.18,33.73,4.03,12.5
2026-05-01 09:05:06,52.425642,-1.466071,122.7,19.46,83.2,10,1.27,-56.4,4.05,-1.38,32.21,4.42,11.3
2026-05-01 09:05:07,52.425538,-1.465806,117.2,18.45,82.7,16,1.3,-72.5,2.47,-1.07,30.78,3.86,11.1
2026-05-01 09:05:08,52.425736,-1.465792,121.2,16.84,82.6,17,1.1,-65.0,0.66,0.19,31.36,4.4,10.7
2026-05-01 09:05:09,52.425744,-1.465587,118.5,20.85,82.7,16,1.15,-64.8,2.08,1.13,30.94,3.31,11.7
2026-05-01 09:05:10,52.425826,-1.465591,117.2,18.13,83.8,16,1.11,-67.6,4.73,-2.0,28.97,3.49,13.6
2026-05-01 09:05:11,52.426041,-1.465442,120.4,16.45,84.1,10,1.22,-67.2,4.02,2.77,31.17,3.14,11.5
2026-05-01 09:05:12,52.426097,-1.46531,122.0,19.29,83.0,14,1.38,-64.6,3.36,0.46,28.55,6.88,10.9
2026-05-01 09:05:13,52.426179,-1.465303,118.3,18.6,82.6,13,1.08,-67.8,3.19,0.7,31.07,6.2,12.7
2026-05-01 09:05:14,52.426312,-1.465018,117.0,18.59,82.2,15,1.35,-72.1,3.05,-0.15,34.69,4.83,12.2
2026-05-01 09:05:15,52.426267,-1.465032,119.8,17.36,83.0,17,1.08,-63.9,3.74,0.03,33.16,5.99,9.9
2026-05-01 09:05:16,52.426416,-1.464892,119.8,18.68,83.6,16,1.07,-59.6,1.32,-0.22,29.77,5.2,12.7
2026-05-01 09:05:17,52.4264,-1.464858,121.1,17.61,82.5,10,1.32,-60.7,-0.03,1.53,31.57,4.27,14.1
2026-05-01 09:05:18,52.426547,-1.464903,121.9,18.83,81.4,16,1.34,-69.0,2.1,-0.01,30.15,1.74,9.4
2026-05-01 09:05:19,52.426585,-1.464555,119.9,15.14,82.9,14,1.33,-71.3,0.77,1.15,31.79,3.61,10.8
2026-05-01 09:05:20,52.426691,-1.464183,123.7,17.35,83.0,11,1.0,-66.4,0.42,-0.65,34.1,3.5,9.2
2026-05-01 09:05:21,52.426824,-1.464235,120.4,20.58,81.7,16,1.13,-57.2,0.92,0.29,33.42,2.3,11.9
2026-05-01 09:05:22,52.426766,-1.464204,119.3,16.85,82.6,14,1.32,-61.8,5.73,-1.21,37.19,1.77,13.0
2026-05-01 09:05:23,52.427141,-1.464117,116.8,17.09,82.7,13,1.21,-61.5,2.2,1.82,34.7,4.74,12.1
2026-05-01 09:05:24,52.426914,-1.463978,119.5,17.33,82.4,17,1.04,-60.6,2.54,-1.25,32.83,4.49,13.4
2026-05-01 09:05:25,52.426977,-1.463814,119.3,16.18,82.0,17,1.27,-62.9,0.17,-0.49,33.87,2.25,12.8
2026-05-01 09:05:26,52.427298,-1.463876,121.9,14.69,82.8,16,1.09,-64.4,-0.77,-0.47,32.21,2.88,13.7
2026-05-01 09:05:27,52.427344,-1.463535,120.9,17.65,82.1,14,1.47,-61.7,0.77,-0.53,30.46,5.74,13.2
2026-05-01 09:05:28,52.427411,-1.463464,117.6,18.2,81.5,10,1.43,-67.7,4.16,1.08,35.43,2.68,11.6
2026-05-01 09:05:29,52.427495,-1.463352,120.3,17.92,81.2,10,1.29,-72.1,2.5,-0.47,34.94,4.26,12.1
2026-05-01 09:05:30,52.427514,-1.463269,121.3,17.78,82.8,12,1.4,-61.4,2.9,2.09,32.54,3.72,11.1
2026-05-01 09:05:31,52.427509,-1.4632,123.1,18.06,82.4,14,1.21,-58.8,3.11,-1.23,33.67,4.76,11.8
2026-05-01 09:05:32,52.42769,-1.463023,121.8,19.53,82.1,11,1.31,-70.6,1.11,0.25,35.7,2.72,12.1
2026-05-01 09:05:33,52.427698,-1.46292,121.5,17.71,81.8,16,1.42,-60.9,4.08,-1.16,35.01,4.14,11.9
2026-05-01 09:05:34,52.427946,-1.462904,120.1,17.14,81.7,15,1.24,-56.6,1.05,0.63,30.49,4.25,13.3
2026-05-01 09:05:35,52.427917,-1.462814,120.8,17.58,81.4,15,1.16,-65.0,4.11,-0.02,34.01,4.35,11.7
2026-05-01 09:05:36,52.427933,-1.462636,122.5,18.87,81.7,13,0.94,-69.1,2.66,-0.23,33.28,4.12,11.1
2026-05-01 09:05:37,52.428067,-1.46238,117.3,20.12,80.8,12,1.19,-64.4,-0.68,1.78,35.94,4.52,11.1
2026-05-01 09:05:38,52.428224,-1.462547,119.3,17.06,81.5,14,1.32,-67.8,0.88,-0.98,35.88,7.29,12.7
2026-05-01 09:05:39,52.428209,-1.462459,118.5,18.15,81.7,11,1.34,-68.1,-0.68,0.88,36.56,7.84,10.6
2026-05-01 09:05:40,52.428267,-1.462185,120.8,18.51,82.1,12,1.28,-62.8,3.74,-1.15,31.78,3.04,11.8
2026-05-01 09:05:41,52.428457,-1.462085,122.5,16.51,81.7,10,1.12,-73.0,1.96,0.17,32.55,0.52,13.3
2026-05-01 09:05:42,52.42854,-1.461962,118.8,18.03,82.1,13,0.9,-72.2,-1.34,-1.79,36.45,4.89,12.3
2026-05-01 09:05:43,52.428549,-1.461843,115.2,15.8,82.3,16,1.13,-64.9,2.56,-0.99,33.14,4.28,11.9
2026-05-01 09:05:44,52.428635,-1.461779,119.2,15.35,82.1,16,1.15,-65.1,1.19,-0.12,31.38,5.59,12.0
2026-05-01 09:05:45,52.428789,-1.461496,121.8,18.55,81.8,16,1.15,-63.3,-0.23,2.72,35.58,4.43,11.0
2026-05-01 09:05:46,52.428705,-1.461694,121.1,17.42,81.5,14,1.29,-55.6,4.52,0.15,33.52,4.09,11.1
2026-05-01 09:05:47,52.428792,-1.461506,120.9,18.3,81.0,15,1.5,-64.5,2.16,2.48,38.3,5.69,11.8
2026-05-01 09:05:48,52.428944,-1.461322,119.4,17.97,81.8,11,1.22,-62.0,1.56,0.33,35.41,5.9,12.3
2026-05-01 09:05:49,52.429078,-1.461365,117.4,16.54,82.3,16,1.17,-69.9,1.4,-0.58,35.24,1.92,12.9
2026-05-01 09:05:50,52.429214,-1.461107,121.0,17.93,81.6,16,1.16,-61.2,-0.27,2.31,34.28,2.78,12.1
2026-05-01 09:05:51,52.429414,-1.460812,118.3,16.15,82.3,10,1.22,-67.6,0.04,0.66,38.3,3.84,13.4
2026-05-01 09:05:52,52.429435,-1.460865,124.4,20.09,80.5,17,1.08,-64.6,3.93,-0.96,35.94,4.15,13.6
2026-05-01 09:05:53,52.429417,-1.460733,121.1,15.97,80.7,12,1.22,-65.5,1.29,0.71,34.5,3.66,12.8
2026-05-01 09:05:54,52.429514,-1.460771,118.8,17.71,81.7,16,1.27,-59.8,2.03,-0.44,33.83,4.65,13.2
2026-05-01 09:05:55,52.4295,-1.460595,118.8,16.44,81.3,13,1.23,-71.5,-1.07,-2.98,35.37,5.49,11.0
2026-05-01 09:05:56,52.429681,-1.46046,119.8,18.86,81.8,12,1.27,-76.4,0.02,1.4,33.66,6.58,10.9
2026-05-01 09:05:57,52.429738,-1.460343,119.5,17.5,81.1,15,1.27,-66.1,2.91,1.64,37.78,4.87,12.5
2026-05-01 09:05:58,52.429882,-1.460072,122.2,17.22,80.6,12,0.93,-62.7,2.57,2.76,32.2,2.72,10.7
2026-05-01 09:05:59,52.429851,-1.460033,120.4,19.28,80.9,11,1.3,-64.2,4.63,0.63,35.64,3.78,11.7
2026-05-01 09:06:00,52.430069,-1.460089,118.5,18.04,80.2,10,1.1,-58.8,4.01,-0.37,37.24,3.89,12.8
2026-05-01 09:06:01,52.430253,-1.459842,123.8,18.77,80.4,14,1.04,-62.8,1.65,1.25,36.8,4.77,13.4
2026-05-01 09:06:02,52.430173,-1.459706,120.1,16.53,81.4,11,1.03,-67.8,2.71,1.27,34.79,4.58,11.7
2026-05-01 09:06:03,52.430307,-1.45953,121.5,15.89,81.3,15,1.27,-76.6,1.53,2.46,37.64,7.08,11.4
2026-05-01 09:06:04,52.430419,-1.459375,118.8,18.16,81.0,13,1.17,-66.2,5.08,-0.07,34.65,3.31,12.3
2026-05-01 09:06:05,52.430393,-1.459523,120.7,17.52,79.9,15,0.95,-59.9,3.72,-0.25,36.48,4.58,10.9
2026-05-01 09:06:06,52.430539,-1.459392,120.6,18.94,80.6,15,1.27,-67.0,2.25,-1.07,37.92,7.53,11.8
2026-05-01 09:06:07,52.430602,-1.459325,116.2,17.88,80.1,12,0.98,-64.9,2.3,0.81,37.65,3.12,12.0
2026-05-01 09:06:08,52.430693,-1.459112,124.0,18.31,81.3,13,1.22,-62.9,4.17,-2.32,35.47,4.22,12.0
2026-05-01 09:06:09,52.43069,-1.458931,122.6,15.56,80.4,11,1.24,-70.1,2.87,1.16,39.32,2.58,12.1
2026-05-01 09:06:10,52.430853,-1.458767,119.2,20.83,80.1,15,1.33,-61.9,4.34,0.88,37.19,4.12,11.2
2026-05-01 09:06:11,52.430984,-1.458762,117.8,17.75,80.6,11,1.47,-56.8,-1.29,0.88,38.61,2.83,11.3
2026-05-01 09:06:12,52.431162,-1.458676,120.7,19.05,80.2,16,1.0,-65.9,2.69,0.21,40.28,5.57,11.3
2026-05-01 09:06:13,52.431197,-1.458517,120.2,16.75,81.2,16,1.19,-70.6,1.23,2.3,39.56,4.22,10.4
2026-05-01 09:06:14,52.431399,-1.458505,120.7,18.46,80.1,16,1.16,-65.3,4.63,1.31,39.66,2.6,12.3
2026-05-01 09:06:15,52.431191,-1.458101,120.4,16.05,79.7,14,1.27,-76.1,4.32,-0.91,37.91,5.26,12.9
2026-05-01 09:06:16,52.431438,-1.45836,121.0,18.68,79.3,12,1.23,-63.3,2.05,-0.88,39.21,4.27,12.8
2026-05-01 09:06:17,52.431452,-1.458069,122.9,17.47,80.3,11,1.15,-62.7,4.3,-1.32,38.15,5.43,11.7
2026-05-01 09:06:18,52.431736,-1.457774,121.1,18.04,80.0,16,1.13,-56.6,4.67,0.83,35.4,2.28,11.2
2026-05-01 09:06:19,52.43152,-1.457865,117.9,19.05,79.5,16,1.03,-66.0,2.11,-1.5,38.53,4.55,12.7
2026-05-01 09:06:20,52.4316,-1.457773,122.7,16.15,80.8,13,1.35,-63.0,5.71,1.63,38.53,5.16,12.6
2026-05-01 09:06:21,52.431708,-1.457679,123.3,16.97,80.5,15,1.27,-69.3,1.95,1.98,39.29,3.36,12.2
2026-05-01 09:06:22,52.431639,-1.45755,126.3,18.69,80.1,16,1.34,-66.8,1.68,-1.32,37.97,2.11,13.7
2026-05-01 09:06:23,52.431882,-1.457284,117.8,21.15,80.8,14,1.15,-72.6,3.3,-0.28,36.8,3.94,12.0
2026-05-01 09:06:24,52.431942,-1.457531,120.5,17.79,80.4,13,1.1,-66.0,1.47,0.02,39.73,5.84,11.7
2026-05-01 09:06:25,52.432116,-1.457045,115.8,18.89,79.6,12,1.04,-66.5,2.13,1.33,35.89,5.69,11.6
2026-05-01 09:06:26,52.432219,-1.45723,121.1,17.84,79.5,17,1.25,-63.5,4.11,2.41,41.54,3.36,10.4
2026-05-01 09:06:27,52.432456,-1.457003,118.9,20.91,80.4,17,1.04,-68.1,2.03,-2.53,38.26,2.08,12.7
2026-05-01 09:06:28,52.432446,-1.456908,123.8,15.38,80.1,14,1.48,-64.6,-0.54,-0.48,39.31,3.35,11.9
2026-05-01 09:06:29,52.432377,-1.456695,118.5,18.14,79.9,14,1.0,-66.7,2.55,-0.4,40.04,3.3,12.5
2026-05-01 09:06:30,52.432428,-1.456802,116.6,15.56,79.4,14,1.24,-66.7,0.96,-2.1,40.2,4.67,13.8
2026-05-01 09:06:31,52.432651,-1.456485,119.1,14.24,80.1,15,1.44,-64.6,3.3,-0.73,36.3,3.84,11.6
2026-05-01 09:06:32,52.432553,-1.456218,116.0,18.45,79.4,17,1.29,-64.8,3.04,0.64,40.87,2.87,9.7
2026-05-01 09:06:33,52.432951,-1.456445,121.5,18.21,79.7,16,1.23,-61.2,4.21,-0.42,39.93,5.66,12.5
2026-05-01 09:06:34,52.43297,-1.456179,115.9,17.57,80.4,10,1.05,-65.6,3.36,-2.32,38.15,4.21,12.2
2026-05-01 09:06:35,52.432888,-1.456153,120.1,17.84,79.3,14,0.99,-66.7,3.64,4.31,38.02,4.65,11.3
2026-05-01 09:06:36,52.432847,-1.455933,115.8,22.65,78.8,13,1.32,-65.9,1.0,0.4,38.95,1.41,12.4
2026-05-01 09:06:37,52.433237,-1.455862,119.4,17.61,79.0,17,1.43,-68.6,3.21,0.17,37.12,0.36,12.8
2026-05-01 09:06:38,52.433174,-1.455817,123.3,18.77,80.0,13,1.13,-66.8,4.95,-1.65,43.27,1.84,11.1
2026-05-01 09:06:39,52.433392,-1.455593,120.7,17.03,79.6,12,1.03,-54.8,0.97,0.39,42.89,3.28,11.7
2026-05-01 09:06:40,52.433192,-1.45535,118.3,18.44,79.4,11,0.83,-69.6,4.7,-0.25,40.93,4.86,13.5
2026-05-01 09:06:41,52.433375,-1.455439,119.9,17.64,79.1,11,1.05,-66.4,1.18,-2.83,39.68,0.49,11.3
2026-05-01 09:06:42,52.433519,-1.455237,120.0,17.38,79.6,10,1.18,-66.9,0.72,-1.61,39.83,6.39,12.1
2026-05-01 09:06:43,52.433607,-1.455327,120.9,20.73,78.9,15,1.44,-66.2,2.44,1.19,41.84,4.26,9.4
2026-05-01 09:06:44,52.43364,-1.455182,117.3,19.77,79.4,16,1.3,-66.7,3.07,2.92,43.94,6.04,10.5
2026-05-01 09:06:45,52.433831,-1.454928,121.2,18.21,78.9,15,1.25,-63.6,3.37,0.55,39.38,2.67,12.2
2026-05-01 09:06:46,52.433745,-1.454715,114.6,14.54,78.8,16,1.14,-73.6,0.56,1.65,38.39,4.76,13.2
2026-05-01 09:06:47,52.433921,-1.454717,118.7,17.46,78.8,14,1.11,-59.8,2.65,-0.23,43.82,4.13,10.6
2026-05-01 09:06:48,52.434031,-1.454673,119.0,22.05,78.9,17,1.41,-61.8,0.97,-0.13,37.25,5.23,12.1
2026-05-01 09:06:49,52.434154,-1.45453,121.3,17.65,79.1,16,1.23,-71.2,-0.23,1.64,38.91,3.65,11.6
2026-05-01 09:06:50,52.434257,-1.454544,120.0,19.65,79.2,17,0.88,-76.3,0.61,2.49,40.53,4.71,13.0
2026-05-01 09:06:51,52.434157,-1.454247,117.2,20.16,77.2,10,1.1,-69.9,0.87,1.95,38.0,5.65,10.8
2026-05-01 09:06:52,52.434199,-1.454109,118.0,18.33,78.6,12,1.07,-66.2,2.78,-1.6,43.45,3.02,12.4
2026-05-01 09:06:53,52.434564,-1.454131,120.4,16.74,78.7,12,1.12,-52.1,3.73,-0.1,43.04,4.36,11.3
2026-05-01 09:06:54,52.434552,-1.454021,119.8,14.35,79.6,11,1.28,-62.3,-0.21,0.42,40.27,1.17,12.2
2026-05-01 09:06:55,52.434528,-1.453837,118.8,19.03,78.3,12,1.18,-74.0,2.53,-0.39,44.08,5.05,12.1
2026-05-01 09:06:56,52.434841,-1.453796,119.0,16.78,78.9,14,1.19,-68.4,0.23,0.58,44.52,6.93,11.7
2026-05-01 09:06:57,52.434781,-1.453648,121.4,18.26,79.5,13,1.4,-65.3,2.94,1.23,41.5,2.13,12.5
2026-05-01 09:06:58,52.434971,-1.45332,119.0,16.13,78.1,12,1.1,-63.7,1.07,1.5,40.92,3.86,12.0
2026-05-01 09:06:59,52.434943,-1.453443,119.8,17.6,78.9,10,1.48,-71.6,0.42,2.53,46.44,5.32,11.9
2026-05-01 09:07:00,52.435226,-1.453343,124.3,18.05,78.3,14,1.1,-65.7,3.2,-0.49,43.47,4.05,11.6
2026-05-01 09:07:01,52.435278,-1.453261,117.2,18.4,78.4,12,1.21,-68.6,1.12,-2.05,42.64,4.25,12.1
2026-05-01 09:07:02,52.435161,-1.453011,116.3,16.33,78.2,15,1.16,-70.5,1.53,0.54,44.95,3.41,12.2
2026-05-01 09:07:03,52.435367,-1.452992,121.6,19.8,78.2,16,1.22,-63.7,-1.33,2.83,42.93,3.36,11.0
2026-05-01 09:07:04,52.435418,-1.452928,118.6,17.1,79.9,12,1.27,-61.1,3.42,-0.72,41.41,3.87,11.7
2026-05-01 09:07:05,52.435573,-1.452619,119.4,15.49,78.9,15,1.27,-60.8,3.23,1.03,42.68,4.06,10.9
2026-05-01 09:07:06,52.435423,-1.452498,118.4,17.84,79.0,14,1.09,-62.1,2.01,1.04,44.7,2.23,12.0
2026-05-01 09:07:07,52.435672,-1.452589,119.5,18.05,78.6,12,1.03,-67.5,-0.29,0.29,38.74,3.9,11.4
2026-05-01 09:07:08,52.435792,-1.452605,123.2,18.24,77.5,15,1.58,-61.4,3.81,0.01,42.25,6.35,12.8
2026-05-01 09:07:09,52.435594,-1.452206,121.6,20.04,78.5,13,1.13,-63.5,1.0,-1.39,45.69,3.37,12.7
2026-05-01 09:07:10,52.435735,-1.452264,121.7,17.65,78.8,17,1.3,-64.3,1.32,-3.42,42.0,2.14,11.1
2026-05-01 09:07:11,52.435733,-1.452005,117.2,17.82,77.8,11,0.96,-68.1,5.47,-1.67,46.22,3.77,12.0
2026-05-01 09:07:12,52.435993,-1.45217,117.7,16.35,78.7,14,1.16,-67.5,0.94,-0.59,46.05,2.93,12.6
2026-05-01 09:07:13,52.436175,-1.451773,114.3,19.23,78.5,15,1.18,-64.6,3.11,1.65,43.19,1.99,11.8
2026-05-01 09:07:14,52.436337,-1.451872,118.4,18.28,79.0,10,1.27,-52.8,2.84,-0.15,42.29,4.21,11.3
2026-05-01 09:07:15,52.436278,-1.451567,121.9,17.37,77.9,17,0.8,-63.5,2.59,-0.78,42.95,2.93,10.9
2026-05-01 09:07:16,52.436516,-1.451527,121.0,15.14,77.5,12,1.22,-68.1,2.42,-1.34,48.95,3.06,12.9
2026-05-01 09:07:17,52.436299,-1.451513,119.6,20.17,77.8,15,1.03,-69.2,2.56,0.99,47.47,4.23,12.9
2026-05-01 09:07:18,52.43635,-1.451347,120.0,16.16,78.7,17,1.25,-67.5,2.41,2.04,44.08,1.7,11.8
2026-05-01 09:07:19,52.436598,-1.451126,118.6,17.11,77.0,16,1.04,-54.1,1.92,1.6,42.71,1.39,12.8
2026-05-01 09:07:20,52.436725,-1.451073,120.4,18.54,76.8,17,1.07,-67.0,4.27,0.91,44.26,5.01,9.0
2026-05-01 09:07:21,52.436767,-1.450914,121.5,16.21,77.9,15,1.16,-60.5,0.03,-2.21,44.61,1.1,13.3
2026-05-01 09:07:22,52.436647,-1.450664,116.8,15.76,77.6,15,1.04,-66.9,3.53,-0.53,41.74,2.53,11.8
2026-05-01 09:07:23,52.436928,-1.450907,120.6,14.81,77.8,16,1.13,-63.7,3.23,2.92,44.48,1.3,12.1
2026-05-01 09:07:24,52.43689,-1.450478,121.9,19.08,78.2,11,1.02,-61.0,3.05,1.68,47.07,3.27,11.7
2026-05-01 09:07:25,52.437171,-1.450518,119.2,17.18,77.4,17,0.93,-67.9,3.68,-2.31,40.93,4.64,13.4
2026-05-01 09:07:26,52.437224,-1.450507,121.4,22.39,76.7,16,1.35,-68.2,1.86,-0.08,46.28,4.17,10.9
2026-05-01 09:07:27,52.437177,-1.450439,125.6,16.51,78.6,16,1.01,-56.7,-0.8,0.54,47.47,7.59,13.5
2026-05-01 09:07:28,52.437303,-1.450213,119.8,16.62,77.1,17,1.17,-60.1,1.89,-1.14,43.7,5.63,12.4
2026-05-01 09:07:29,52.437332,-1.449991,120.8,17.15,77.0,10,1.31,-61.0,0.51,-3.46,48.31,2.6,12.6
2026-05-01 09:07:30,52.437515,-1.449985,118.5,18.36,78.0,16,1.11,-61.1,0.9,0.15,43.64,2.2,11.7
2026-05-01 09:07:31,52.4377,-1.44971,120.4,17.29,77.3,10,1.08,-62.7,0.14,-1.18,46.01,8.06,10.7
2026-05-01 09:07:32,52.437589,-1.449895,120.9,18.92,77.4,13,1.23,-54.9,1.28,-1.18,44.61,5.59,12.9
2026-05-01 09:07:33,52.437821,-1.44964,120.4,16.53,77.6,17,1.37,-64.8,1.11,-0.53,44.71,4.88,12.3
2026-05-01 09:07:34,52.437801,-1.449653,118.0,15.93,77.9,16,1.02,-62.1,-1.57,-0.2,44.19,4.11,13.4
2026-05-01 09:07:35,52.437858,-1.44938,120.4,15.3,77.1,11,1.18,-72.3,3.05,-0.01,46.92,4.41,11.8
2026-05-01 09:07:36,52.43801,-1.449216,122.9,14.66,78.0,16,0.94,-69.1,5.33,-1.33,47.32,1.78,11.6
2026-05-01 09:07:37,52.438001,-1.449236,120.9,17.22,76.1,15,1.14,-71.0,2.91,-0.33,45.6,4.24,13.4
2026-05-01 09:07:38,52.438133,-1.449343,121.9,17.55,77.6,14,1.21,-58.6,1.7,-2.64,43.11,4.11,13.9
2026-05-01 09:07:39,52.438151,-1.448952,119.5,17.05,76.7,11,1.07,-77.8,1.92,0.47,46.73,2.64,12.0
2026-05-01 09:07:40,52.438551,-1.448817,121.5,19.87,77.8,16,1.13,-67.0,1.37,-4.28,46.87,3.19,11.2
2026-05-01 09:07:41,52.438442,-1.448709,120.6,19.84,77.1,11,0.99,-80.0,2.14,-0.43,45.69,6.27,12.8
2026-05-01 09:07:42,52.438451,-1.448515,118.1,17.5,76.7,17,1.21,-69.2,1.94,1.38,49.96,3.81,11.7
2026-05-01 09:07:43,52.438626,-1.448634,120.6,15.31,77.3,10,1.36,-67.5,0.74,-1.59,43.2,7.11,12.6
2026-05-01 09:07:44,52.438677,-1.448348,118.0,17.15,77.4,13,1.04,-58.1,4.52,1.07,41.99,1.39,11.7
2026-05-01 09:07:45,52.438749,-1.448185,118.7,17.1,77.2,13,1.11,-63.0,-0.23,1.73,45.06,3.22,13.6
2026-05-01 09:07:46,52.438916,-1.448371,120.4,17.01,76.4,17,1.28,-69.2,3.08,-4.96,48.05,1.68,11.3
2026-05-01 09:07:47,52.439014,-1.44805,120.6,16.95,76.6,17,1.38,-59.7,1.85,-0.23,44.61,2.19,12.5
2026-05-01 09:07:48,52.438969,-1.448022,117.6,17.02,76.8,11,0.98,-64.9,4.85,-4.31,44.86,2.76,11.5
2026-05-01 09:07:49,52.439047,-1.447868,122.1,17.42,76.7,17,1.17,-64.8,2.51,-0.18,48.83,4.47,11.7
2026-05-01 09:07:50,52.439161,-1.447714,121.1,17.05,77.1,11,1.24,-71.0,1.46,-0.01,47.95,4.4,11.6
2026-05-01 09:07:51,52.439042,-1.447686,118.6,18.31,75.7,17,1.18,-70.0,1.63,-3.72,47.88,2.98,12.7
2026-05-01 09:07:52,52.439204,-1.447594,116.9,18.54,76.8,16,0.83,-69.1,2.06,2.89,48.79,0.66,12.9
2026-05-01 09:07:53,52.439575,-1.447412,119.7,16.63,76.5,17,1.28,-64.8,0.29,0.43,46.48,6.22,12.6
2026-05-01 09:07:54,52.439686,-1.447413,119.1,19.91,76.1,12,1.43,-64.6,0.85,-1.27,46.67,3.57,11.9
2026-05-01 09:07:55,52.43958,-1.447301,120.2,16.53,76.1,15,1.22,-57.3,-0.68,2.2,49.15,2.33,12.1
2026-05-01 09:07:56,52.439746,-1.447014,119.3,15.57,76.4,10,1.05,-63.1,0.62,-2.69,44.94,4.41,12.9
2026-05-01 09:07:57,52.439803,-1.447085,116.0,18.57,74.6,15,1.12,-78.5,2.14,-1.84,43.44,4.31,12.9
2026-05-01 09:07:58,52.440163,-1.446793,119.2,16.77,76.1,14,1.47,-63.7,2.45,-3.45,46.96,3.52,9.3
2026-05-01 09:07:59,52.440051,-1.446702,119.4,18.48,75.9,14,1.34,-72.3,-0.97,2.7,49.79,4.22,11.7
2026-05-01 09:08:00,52.440009,-1.44681,121.3,14.39,76.6,13,1.3,-69.8,1.79,0.5,48.54,2.27,11.8
2026-05-01 09:08:01,52.44001,-1.446594,118.6,20.09,75.9,10,1.25,-69.1,2.85,0.99,49.84,5.14,12.7
2026-05-01 09:08:02,52.440028,-1.446295,123.4,19.01,76.1,15,1.1,-68.3,1.76,0.45,44.19,2.5,11.9
2026-05-01 09:08:03,52.440293,-1.446402,116.2,15.75,77.0,13,1.17,-71.9,1.05,0.86,48.96,3.09,12.7
2026-05-01 09:08:04,52.44028,-1.446239,122.6,15.78,76.7,14,1.19,-64.0,1.38,0.12,49.73,4.97,10.9
2026-05-01 09:08:05,52.440297,-1.446035,119.6,20.51,76.6,11,1.28,-72.1,1.19,0.41,45.83,5.81,12.3
2026-05-01 09:08:06,52.440458,-1.445892,121.7,16.89,75.8,10,1.43,-63.2,1.04,0.16,50.35,6.38,12.9
2026-05-01 09:08:07,52.440498,-1.445884,120.2,16.75,76.3,10,1.37,-53.8,2.26,-0.91,48.5,5.58,10.5
2026-05-01 09:08:08,52.440858,-1.445807,122.3,14.6,75.9,17,0.99,-71.6,5.46,-0.07,54.97,3.51,14.5
2026-05-01 09:08:09,52.440861,-1.445494,119.2,17.47,75.9,17,1.23,-66.4,0.88,0.41,44.57,1.69,13.2
2026-05-01 09:08:10,52.440855,-1.445351,117.8,17.66,76.1,15,1.31,-77.6,1.52,0.17,51.77,6.11,12.0
2026-05-01 09:08:11,52.441087,-1.445316,122.8,19.07,75.6,17,1.29,-66.5,1.92,-2.22,48.34,6.06,11.2
2026-05-01 09:08:12,52.441031,-1.445294,119.8,15.9,76.6,17,1.11,-61.8,0.97,-2.02,45.99,2.99,11.8
2026-05-01 09:08:13,52.44102,-1.445273,120.4,15.72,75.7,16,1.64,-61.4,3.65,1.62,48.27,5.38,12.1
2026-05-01 09:08:14,52.441342,-1.445164,122.5,18.68,76.1,12,1.01,-64.6,-1.56,-0.46,49.98,3.5,12.4
2026-05-01 09:08:15,52.441327,-1.444917,117.9,19.51,76.5,15,1.04,-60.6,1.2,0.88,51.6,6.25,13.5
2026-05-01 09:08:16,52.441253,-1.444816,121.2,15.64,76.2,17,1.24,-52.3,3.23,-1.64,53.07,3.23,11.5
2026-05-01 09:08:17,52.441421,-1.444607,118.8,19.62,75.0,11,1.52,-56.4,1.56,-2.21,52.57,6.97,12.6
2026-05-01 09:08:18,52.441436,-1.444571,119.7,18.06,75.8,16,1.07,-67.6,0.77,-1.27,47.9,5.18,10.7
2026-05-01 09:08:19,52.441468,-1.444675,120.1,19.64,76.0,16,1.16,-72.3,2.66,-0.33,52.19,6.7,11.6
2026-05-01 09:08:20,52.441782,-1.444308,117.0,17.89,76.0,16,1.36,-67.0,3.36,-1.0,50.81,3.3,12.4
2026-05-01 09:08:21,52.441964,-1.444402,118.4,14.22,74.9,11,1.2,-69.7,2.32,1.94,48.82,4.61,12.7
2026-05-01 09:08:22,52.441717,-1.44423,122.7,17.77,75.1,13,1.15,-62.7,0.8,0.27,49.8,2.55,11.2
2026-05-01 09:08:23,52.441996,-1.444055,121.8,19.59,75.9,10,1.28,-70.9,2.68,2.77,48.91,5.27,11.6
2026-05-01 09:08:24,52.441958,-1.443769,119.9,16.66,75.0,13,1.24,-65.4,1.4,0.61,50.5,5.35,13.5
2026-05-01 09:08:25,52.442058,-1.443547,120.5,17.42,75.2,11,1.35,-60.8,3.12,-3.62,49.07,7.6,13.2
2026-05-01 09:08:26,52.442131,-1.443686,119.4,17.74,76.1,12,1.39,-65.5,4.22,1.58,48.57,4.72,12.2
2026-05-01 09:08:27,52.442187,-1.443654,122.7,13.65,75.2,10,1.25,-69.7,-1.91,-2.26,51.69,5.09,9.8
2026-05-01 09:08:28,52.442362,-1.443471,119.6,20.51,74.9,11,1.24,-59.1,2.17,0.35,52.09,3.29,14.5
2026-05-01 09:08:29,52.442357,-1.443324,120.5,16.65,74.8,12,1.23,-74.4,-0.6,-1.16,50.55,4.81,12.0
2026-05-01 09:08:30,52.442551,-1.443334,122.3,18.76,75.3,15,1.27,-66.6,5.66,3.21,53.76,3.43,11.7
2026-05-01 09:08:31,52.442602,-1.443011,118.4,17.87,74.5,14,1.21,-65.2,1.3,2.16,50.61,4.17,11.5
2026-05-01 09:08:32,52.442666,-1.443056,123.1,19.89,75.0,16,1.2,-64.9,3.12,-1.11,50.62,4.26,12.4
2026-05-01 09:08:33,52.442683,-1.442919,116.9,18.61,75.2,17,1.38,-64.1,1.95,-0.19,52.65,3.47,12.4
2026-05-01 09:08:34,52.442799,-1.442791,123.3,17.65,75.6,11,1.43,-61.9,0.8,0.37,51.16,4.09,13.0
2026-05-01 09:08:35,52.443016,-1.442704,119.3,16.66,75.3,14,0.97,-65.2,0.62,1.3,51.7,3.44,11.1
2026-05-01 09:08:36,52.443074,-1.442551,119.5,19.2,74.6,13,1.2,-66.8,4.38,0.04,46.59,3.43,11.7
2026-05-01 09:08:37,52.44301,-1.442585,116.2,15.19,75.5,14,1.1,-67.0,3.43,-1.54,51.76,5.61,14.0
2026-05-01 09:08:38,52.443201,-1.442468,119.1,18.97,74.7,11,1.15,-68.1,4.92,-1.08,48.17,4.26,12.2
2026-05-01 09:08:39,52.443349,-1.442411,117.9,16.35,74.2,14,1.26,-61.1,2.08,-0.01,49.49,4.52,11.8
2026-05-01 09:08:40,52.44319,-1.442146,118.8,19.88,74.7,16,1.3,-68.2,2.43,1.85,49.36,1.81,11.1
2026-05-01 09:08:41,52.443495,-1.442001,119.7,18.24,75.4,10,1.18,-60.8,1.6,0.64,50.04,4.64,12.5
2026-05-01 09:08:42,52.443458,-1.441922,121.9,18.97,74.8,11,0.91,-64.9,1.57,-1.16,51.13,4.8,13.0
2026-05-01 09:08:43,52.443665,-1.441689,120.4,18.12,74.7,12,1.06,-67.6,0.44,0.97,51.36,3.4,12.9
2026-05-01 09:08:44,52.443615,-1.441746,120.6,15.37,75.4,14,1.33,-61.9,2.13,-0.58,53.76,7.13,11.7
2026-05-01 09:08:45,52.443594,-1.441567,117.8,16.71,73.9,10,0.8,-68.6,0.82,1.34,52.97,0.57,12.4
2026-05-01 09:08:46,52.443695,-1.441632,118.2,19.01,73.9,16,1.38,-61.8,2.66,3.79,48.83,5.18,13.7
2026-05-01 09:08:47,52.443946,-1.441451,123.6,18.25,73.7,13,1.28,-63.9,2.26,-0.54,52.9,5.07,13.1
2026-05-01 09:08:48,52.44405,-1.441231,118.5,19.77,74.6,13,1.4,-68.0,2.43,1.2,53.47,4.81,11.2
2026-05-01 09:08:49,52.444017,-1.441105,123.3,18.6,74.5,16,1.17,-62.4,4.51,-1.12,52.27,4.26,9.5
2026-05-01 09:08:50,52.444255,-1.441108,119.5,16.55,75.1,14,0.89,-62.3,1.94,-0.17,52.91,4.83,12.3
2026-05-01 09:08:51,52.444108,-1.440974,120.0,16.81,74.5,13,1.26,-59.2,3.14,0.04,53.51,5.3,12.8
2026-05-01 09:08:52,52.444351,-1.441008,122.1,18.15,74.1,12,1.39,-60.2,5.08,-0.29,54.76,2.91,10.9
2026-05-01 09:08:53,52.44432,-1.440781,122.5,14.53,74.3,11,1.34,-62.5,3.96,3.69,50.18,4.45,12.0
2026-05-01 09:08:54,52.44446,-1.440545,119.8,20.51,74.3,10,1.1,-70.6,3.73,-0.46,52.94,3.73,11.7
2026-05-01 09:08:55,52.444613,-1.440465,119.2,18.66,73.3,15,1.21,-52.8,1.54,0.88,56.55,2.36,12.1
2026-05-01 09:08:56,52.444605,-1.440361,119.9,19.84,75.5,14,1.12,-72.0,2.34,-2.9,56.46,5.08,11.5
2026-05-01 09:08:57,52.444736,-1.440295,120.7,15.63,74.4,13,1.08,-60.3,0.02,0.65,55.43,3.15,13.3
2026-05-01 09:08:58,52.444959,-1.440188,121.8,19.87,74.2,11,1.34,-62.8,2.75,1.71,54.9,1.75,12.1
2026-05-01 09:08:59,52.444884,-1.440144,120.0,21.35,74.3,15,1.02,-70.9,2.41,-0.79,57.24,3.19,11.1
2026-05-01 09:09:00,52.445109,-1.439897,121.2,16.02,74.3,12,1.07,-65.6,2.04,-3.77,57.87,2.8,12.9
2026-05-01 09:09:01,52.444995,-1.439813,123.3,19.16,73.9,13,1.03,-65.4,3.54,-0.06,53.87,5.54,10.7
2026-05-01 09:09:02,52.445245,-1.439695,120.8,18.0,73.6,13,0.98,-58.5,0.19,0.03,52.29,4.23,13.3
2026-05-01 09:09:03,52.445419,-1.439686,120.6,15.68,74.2,10,1.22,-68.6,4.45,1.09,53.79,6.07,13.0
2026-05-01 09:09:04,52.445111,-1.439737,117.0,18.74,74.0,12,1.37,-66.3,3.35,3.02,60.62,3.0,13.4
2026-05-01 09:09:05,52.445362,-1.439301,114.7,19.25,73.4,12,1.17,-76.7,1.89,-0.57,51.39,5.31,11.8
2026-05-01 09:09:06,52.445583,-1.439347,120.8,17.1,74.5,14,0.97,-56.3,1.78,-1.28,53.69,8.26,11.5
2026-05-01 09:09:07,52.445588,-1.439275,119.8,19.75,73.9,15,1.33,-70.4,2.72,-1.75,51.91,4.53,12.1
2026-05-01 09:09:08,52.445729,-1.439008,119.0,15.5,74.0,10,1.45,-63.4,4.28,0.3,55.08,5.29,11.9
2026-05-01 09:09:09,52.445715,-1.439005,120.5,15.76,74.3,14,1.1,-65.5,2.15,0.72,52.53,5.04,11.3
2026-05-01 09:09:10,52.445867,-1.438749,119.9,18.2,73.6,10,1.13,-65.5,2.22,-0.82,54.81,1.87,11.4
2026-05-01 09:09:11,52.445927,-1.438682,122.3,18.04,73.7,12,1.28,-61.0,2.03,1.17,51.23,4.88,11.6
2026-05-01 09:09:12,52.446142,-1.438564,120.2,16.93,73.9,10,1.44,-56.6,4.67,0.7,56.47,4.46,10.8
2026-05-01 09:09:13,52.446134,-1.438658,118.5,19.21,73.1,10,1.12,-63.7,1.45,0.06,57.78,3.61,12.7
2026-05-01 09:09:14,52.446226,-1.438289,122.0,18.8,73.5,10,1.0,-61.7,1.96,-1.35,54.66,2.67,11.9
2026-05-01 09:09:15,52.446235,-1.438273,119.6,19.29,73.5,17,1.29,-63.4,4.2,-0.72,55.26,5.04,11.7
2026-05-01 09:09:16,52.44631,-1.438225,121.1,17.82,72.9,11,1.32,-59.9,2.22,-3.64,55.3,2.54,10.9
2026-05-01 09:09:17,52.446399,-1.438062,119.0,18.9,74.5,11,1.2,-67.3,3.71,0.35,56.09,7.2,10.8
2026-05-01 09:09:18,52.446565,-1.438143,118.7,17.33,72.6,15,1.12,-59.6,0.63,0.04,55.75,4.17,13.9
2026-05-01 09:09:19,52.446567,-1.437813,120.2,21.08,72.6,15,1.35,-59.4,1.69,0.28,57.47,2.17,11.4
2026-05-01 09:09:20,52.446722,-1.437846,120.0,16.78,73.9,16,1.28,-59.6,4.23,0.76,58.5,3.23,12.6
2026-05-01 09:09:21,52.446984,-1.437767,121.0,21.16,73.5,12,1.08,-68.3,0.99,0.58,54.5,3.58,12.2
2026-05-01 09:09:22,52.446946,-1.437673,119.5,18.05,72.6,10,1.21,-65.8,1.77,-0.17,55.61,7.62,9.2
2026-05-01 09:09:23,52.44691,-1.437298,116.3,15.94,73.4,12,1.0,-63.8,2.39,0.07,58.13,2.67,13.8
2026-05-01 09:09:24,52.447146,-1.437361,119.1,20.05,73.8,11,1.3,-71.9,0.52,-2.11,53.59,3.83,12.7
2026-05-01 09:09:25,52.447069,-1.437034,121.6,18.19,73.0,17,1.16,-57.0,1.38,-0.88,52.59,3.19,11.2
2026-05-01 09:09:26,52.446989,-1.43713,119.4,19.28,74.3,10,1.13,-65.1,2.17,0.08,57.08,4.75,12.0
2026-05-01 09:09:27,52.447175,-1.437136,119.5,19.84,72.1,14,1.2,-63.6,2.07,-1.1,57.72,3.22,10.9
2026-05-01 09:09:28,52.447173,-1.436965,122.0,18.51,73.2,11,1.21,-67.9,3.92,1.29,55.39,2.29,13.8
2026-05-01 09:09:29,52.447408,-1.436619,118.6,17.11,73.4,11,1.33,-71.6,4.31,-0.99,55.77,3.71,11.1
2026-05-01 09:09:30,52.447528,-1.436647,116.9,19.46,73.3,11,1.29,-68.0,0.72,0.32,55.51,3.55,11.5
2026-05-01 09:09:31,52.447777,-1.436575,119.7,18.0,72.7,16,1.18,-63.9,2.17,0.17,55.4,3.11,11.3
2026-05-01 09:09:32,52.447726,-1.436393,119.0,19.03,72.6,10,1.31,-61.6,3.01,1.12,58.62,3.19,12.1
2026-05-01 09:09:33,52.447755,-1.436248,118.1,14.77,72.9,15,1.26,-64.2,4.27,1.35,54.97,5.78,13.4
2026-05-01 09:09:34,52.447943,-1.436075,119.6,18.67,73.1,13,1.14,-63.3,3.08,1.04,56.9,3.52,13.8
2026-05-01 09:09:35,52.447722,-1.435931,121.0,17.04,72.9,14,1.18,-66.7,2.44,-3.16,55.72,2.3,11.6
2026-05-01 09:09:36,52.44805,-1.436,120.0,20.48,73.1,14,1.18,-62.5,3.0,1.79,54.72,3.31,12.4
2026-05-01 09:09:37,52.448187,-1.435986,120.6,18.93,72.0,12,1.28,-57.6,3.01,2.29,59.47,4.08,12.1
2026-05-01 09:09:38,52.448046,-1.435783,123.6,18.36,72.4,10,1.14,-61.5,0.61,-0.72,56.79,2.0,11.0
2026-05-01 09:09:39,52.448391,-1.435605,119.3,18.73,72.0,15,1.14,-61.0,2.29,0.35,58.31,6.44,14.4
2026-05-01 09:09:40,52.448394,-1.435616,120.6,16.5,72.2,11,1.5,-63.5,4.19,-1.34,55.02,5.3,13.4
2026-05-01 09:09:41,52.448402,-1.435504,119.0,20.43,72.9,13,1.34,-72.5,1.69,-2.92,56.65,6.15,12.2
2026-05-01 09:09:42,52.44859,-1.435263,118.3,20.99,72.4,10,1.09,-70.2,2.19,-1.11,59.74,4.59,13.6
2026-05-01 09:09:43,52.448837,-1.435191,118.8,18.59,73.6,10,1.29,-62.7,1.64,-0.81,63.51,0.86,13.2
2026-05-01 09:09:44,52.448712,-1.435072,119.0,20.39,72.4,16,1.22,-65.1,-1.47,-0.53,54.48,6.3,12.1
2026-05-01 09:09:45,52.448802,-1.43504,120.7,17.15,72.3,15,1.26,-62.8,2.03,-1.44,58.13,2.7,12.3
2026-05-01 09:09:46,52.448815,-1.434876,124.7,16.8,72.3,13,1.22,-56.6,2.45,-1.1,59.46,2.83,13.5
2026-05-01 09:09:47,52.448859,-1.434834,118.6,18.06,71.8,11,1.38,-61.4,1.23,-0.02,57.5,4.23,11.1
2026-05-01 09:09:48,52.44911,-1.434541,119.2,18.65,72.1,10,1.25,-58.7,0.27,-1.16,60.53,6.07,13.7
2026-05-01 09:09:49,52.449025,-1.434416,119.9,17.41,72.6,14,1.19,-64.5,0.68,0.82,57.2,5.58,11.8
2026-05-01 09:09:50,52.449201,-1.434593,120.8,18.81,72.1,17,1.36,-69.0,3.15,1.02,59.34,5.36,13.5
2026-05-01 09:09:51,52.44923,-1.43439,120.5,18.46,71.6,14,1.23,-65.3,4.96,3.57,58.09,3.53,12.0
2026-05-01 09:09:52,52.449409,-1.434335,122.6,16.5,71.5,13,1.22,-69.0,4.07,1.69,61.67,3.51,12.3
2026-05-01 09:09:53,52.449478,-1.434139,115.1,18.78,71.7,17,1.25,-57.2,-0.02,0.36,57.98,4.52,12.0
2026-05-01 09:09:54,52.449631,-1.433972,115.2,19.3,71.9,11,1.19,-61.0,3.28,-0.93,58.73,3.8,11.5
2026-05-01 09:09:55,52.44956,-1.433997,119.0,18.26,72.4,13,1.2,-62.4,1.01,0.44,61.42,5.33,11.7
2026-05-01 09:09:56,52.449667,-1.433833,122.2,19.73,71.1,10,1.11,-58.8,1.13,0.49,57.58,5.25,13.4
2026-05-01 09:09:57,52.44968,-1.43373,116.9,16.17,71.6,16,1.09,-75.1,1.31,-0.77,59.87,4.89,9.7
2026-05-01 09:09:58,52.449817,-1.433498,114.0,18.7,71.8,16,1.05,-62.1,3.06,1.18,56.19,0.21,10.8
2026-05-01 09:09:59,52.449982,-1.433401,121.1,16.24,70.8,14,0.99,-71.6,3.44,-2.1,57.76,4.19,11.3
2026-05-01 09:10:00,52.450103,-1.433368,120.5,16.33,71.2,16,1.07,-65.0,1.85,-0.37,60.8,3.84,10.9
2026-05-01 09:10:01,52.450019,-1.433167,117.8,17.05,71.3,12,1.17,-66.6,1.88,0.83,58.15,4.25,13.5
2026-05-01 09:10:02,52.450282,-1.433129,118.0,16.59,71.2,13,1.22,-61.7,2.7,-0.43,59.14,2.87,13.3
2026-05-01 09:10:03,52.450413,-1.43299,118.1,17.18,71.6,16,1.16,-63.9,2.85,-0.31,61.32,2.01,12.6
2026-05-01 09:10:04,52.450403,-1.432684,120.2,17.68,71.4,12,0.85,-58.3,3.76,-0.21,59.28,4.69,11.4
2026-05-01 09:10:05,52.450632,-1.432606,118.7,19.26,71.2,12,1.44,-68.0,0.07,-1.25,62.18,3.47,13.3
2026-05-01 09:10:06,52.450451,-1.432759,121.0,17.52,71.6,15,1.36,-61.5,2.03,1.76,61.07,4.86,10.4
2026-05-01 09:10:07,52.450487,-1.432435,114.3,15.62,72.2,14,1.27,-64.2,0.4,-1.53,61.61,2.99,14.1
2026-05-01 09:10:08,52.450517,-1.432326,118.3,19.71,72.2,13,1.49,-73.2,1.92,0.48,63.32,6.12,11.3
2026-05-01 09:10:09,52.450928,-1.432411,117.7,16.74,70.3,12,1.05,-69.6,1.66,0.62,61.57,5.5,11.7
2026-05-01 09:10:10,52.450927,-1.432103,119.5,17.91,71.6,10,1.48,-65.7,1.93,-1.42,64.11,4.45,11.6
2026-05-01 09:10:11,52.450939,-1.43192,118.9,18.67,71.1,16,1.06,-59.4,0.8,0.11,62.96,3.68,10.9
2026-05-01 09:10:12,52.451056,-1.432074,121.6,18.3,71.3,15,1.24,-62.7,-0.23,-1.36,60.19,5.28,13.9
