timestamp,latitude,longitude,altitude_m,speed_ms,battery_pct,gps_satellites,hdop,signal_dbm,pitch_deg,roll_deg,yaw_deg,wind_speed_ms,temperature_c
2026-05-01 09:00:00,52.399986,-1.500085,121.3,16.83,94.7,15,1.07,-69.4,3.02,0.68,358.67,2.14,12.4
2026-05-01 09:00:01,52.400289,-1.499898,120.6,18.28,95.0,10,1.18,-60.5,0.44,-1.51,355.92,3.35,11.0
2026-05-01 09:00:02,52.400195,-1.499818,121.3,19.09,94.6,11,1.29,-75.6,2.94,-2.49,0.78,5.1,12.0
2026-05-01 09:00:03,52.400383,-1.499882,123.7,12.93,95.2,11,1.0,-71.4,1.89,1.17,2.33,1.66,11.1
2026-05-01 09:00:04,52.400318,-1.49969,122.3,18.19,95.1,11,1.48,-59.8,2.36,2.18,5.16,3.84,12.9
2026-05-01 09:00:05,52.40041,-1.499463,118.4,18.08,94.6,14,1.21,-71.9,2.64,-0.78,0.53,5.73,12.6
2026-05-01 09:00:06,52.400576,-1.499297,122.3,17.63,94.4,14,1.19,-69.4,3.08,1.15,4.58,3.87,11.7
2026-05-01 09:00:07,52.400666,-1.499151,118.3,17.81,95.1,12,1.12,-73.4,1.96,-0.94,2.0,4.78,12.6
2026-05-01 09:00:08,52.400656,-1.499142,118.8,18.27,94.5,13,1.26,-61.8,1.69,-1.4,0.26,6.31,11.2
2026-05-01 09:00:09,52.400514,-1.499007,119.7,16.81,94.9,10,0.95,-55.2,0.5,-1.09,359.36,5.49,10.4
2026-05-01 09:00:10,52.400817,-1.499067,122.8,16.15,94.7,11,1.31,-65.0,3.06,0.96,0.12,5.38,12.0
2026-05-01 09:00:11,52.400986,-1.498866,120.9,19.47,93.9,13,1.21,-63.9,2.25,3.31,358.6,4.01,11.9
2026-05-01 09:00:12,52.401003,-1.498906,119.1,17.69,94.4,15,1.22,-59.4,4.0,0.28,357.5,1.27,12.4
2026-05-01 09:00:13,52.40113,-1.498372,124.1,16.21,94.5,16,1.05,-72.0,2.65,-0.07,0.03,6.43,12.1
2026-05-01 09:00:14,52.401194,-1.498646,121.7,18.7,94.9,17,0.96,-68.2,0.46,-0.11,3.25,6.19,9.9
2026-05-01 09:00:15,52.401107,-1.498381,119.4,17.11,93.8,12,1.5,-64.7,1.36,-0.74,0.49,4.42,12.4
2026-05-01 09:00:16,52.401422,-1.498158,121.7,16.85,94.3,16,1.15,-61.7,1.64,-0.37,0.81,5.25,11.7
2026-05-01 09:00:17,52.401359,-1.497986,120.6,18.58,94.7,15,1.11,-59.8,2.4,1.75,4.43,2.45,11.0
2026-05-01 09:00:18,52.401451,-1.498139,120.1,16.54,94.6,12,1.34,-67.0,0.19,-0.2,2.04,3.75,12.2
2026-05-01 09:00:19,52.401643,-1.497943,118.5,18.31,93.4,10,1.34,-63.9,0.37,-0.28,1.63,5.54,12.6
2026-05-01 09:00:20,52.401594,-1.4978,121.1,16.71,93.7,17,1.22,-64.8,3.88,-1.25,0.52,3.0,13.5
2026-05-01 09:00:21,52.401777,-1.497641,121.4,18.0,94.9,15,1.17,-70.2,1.86,-0.66,2.56,3.98,12.6
2026-05-01 09:00:22,52.401749,-1.497645,123.9,17.55,94.1,17,1.13,-64.2,2.38,1.89,5.07,0.0,11.3
2026-05-01 09:00:23,52.401899,-1.497482,117.7,19.17,94.0,17,1.03,-69.8,-1.08,1.52,2.16,5.95,12.4
2026-05-01 09:00:24,52.401964,-1.497316,120.3,21.61,93.6,12,1.1,-75.4,2.17,-0.53,3.45,3.99,11.0
2026-05-01 09:00:25,52.402038,-1.497389,122.0,19.35,94.3,16,1.23,-63.5,0.21,0.44,1.91,3.85,12.3
2026-05-01 09:00:26,52.402086,-1.496931,121.9,18.87,94.9,12,0.97,-60.2,3.16,1.08,3.15,3.84,12.2
2026-05-01 09:00:27,52.402247,-1.496887,117.6,16.13,94.2,15,1.06,-63.9,1.35,1.38,5.93,2.26,11.6
2026-05-01 09:00:28,52.402347,-1.497057,120.1,17.65,93.0,14,1.4,-72.1,4.44,2.03,4.72,5.32,11.7
2026-05-01 09:00:29,52.402511,-1.496813,122.0,18.8,93.7,10,1.17,-57.7,3.45,0.21,4.77,5.28,14.0
2026-05-01 09:00:30,52.402444,-1.49672,120.3,18.87,93.9,17,0.99,-60.8,-0.73,-0.89,2.64,3.62,10.8
2026-05-01 09:00:31,52.40259,-1.496384,123.4,17.5,93.1,14,1.15,-65.7,1.56,1.56,3.82,5.36,12.2
2026-05-01 09:00:32,52.402889,-1.496378,118.4,17.47,94.3,10,1.21,-65.7,-0.2,2.37,3.14,8.27,10.9
2026-05-01 09:00:33,52.402791,-1.496363,118.2,20.83,93.0,16,1.13,-60.4,2.68,-0.85,2.66,2.61,12.1
2026-05-01 09:00:34,52.402883,-1.496213,121.6,16.97,93.7,17,1.04,-62.9,3.49,0.5,1.61,6.74,14.4
2026-05-01 09:00:35,52.402962,-1.49613,121.3,16.69,94.0,13,1.2,-70.1,2.4,1.07,4.85,3.93,11.1
2026-05-01 09:00:36,52.402831,-1.495998,120.1,16.65,94.1,14,0.97,-60.7,1.36,-2.38,3.61,3.5,10.2
2026-05-01 09:00:37,52.403061,-1.49579,121.2,17.69,93.2,16,1.16,-69.5,0.67,-1.46,3.24,3.35,11.8
2026-05-01 09:00:38,52.402954,-1.495691,119.4,17.57,93.9,13,1.35,-75.8,2.71,-1.33,1.86,3.16,12.0
2026-05-01 09:00:39,52.403338,-1.495823,120.7,18.54,94.1,14,1.22,-63.4,2.11,-2.41,5.29,3.06,11.2
2026-05-01 09:00:40,52.403505,-1.495475,116.9,16.74,93.3,12,1.2,-62.4,2.77,-3.28,2.67,5.14,12.1
2026-05-01 09:00:41,52.403366,-1.495576,123.1,16.77,93.1,15,1.22,-72.0,1.02,-0.07,5.65,2.47,11.0
2026-05-01 09:00:42,52.403678,-1.495298,117.8,15.48,94.2,13,1.42,-67.3,5.02,-1.36,7.79,6.22,13.7
2026-05-01 09:00:43,52.403473,-1.495373,121.0,17.21,93.5,17,0.96,-67.7,1.69,-0.91,4.44,2.7,12.6
2026-05-01 09:00:44,52.40355,-1.495185,119.3,17.85,94.1,12,1.3,-53.1,4.3,0.8,4.35,6.24,11.9
2026-05-01 09:00:45,52.403807,-1.494877,119.8,16.24,92.8,11,1.38,-65.7,2.7,-0.77,1.9,3.13,12.4
2026-05-01 09:00:46,52.403754,-1.494939,123.9,18.81,92.8,17,1.26,-60.3,0.63,-1.21,2.16,4.64,13.3
2026-05-01 09:00:47,52.403869,-1.494708,124.5,17.32,93.3,10,1.03,-62.1,2.6,2.14,2.74,5.03,11.6
2026-05-01 09:00:48,52.404111,-1.49463,118.9,17.43,93.0,11,1.19,-63.0,2.26,2.0,4.99,1.54,12.4
2026-05-01 09:00:49,52.403988,-1.494646,119.5,20.5,92.2,16,1.14,-64.6,3.83,0.46,6.6,6.86,11.8
2026-05-01 09:00:50,52.404141,-1.494653,122.5,19.23,93.1,10,1.06,-65.7,2.61,-1.29,4.13,3.3,13.6
2026-05-01 09:00:51,52.404241,-1.494316,118.5,17.89,93.6,15,1.25,-70.1,2.87,1.77,5.32,4.07,11.9
2026-05-01 09:00:52,52.404374,-1.494172,115.6,15.68,92.7,12,0.86,-65.2,1.15,3.14,6.81,3.5,11.6
2026-05-01 09:00:53,52.404492,-1.494119,118.5,15.8,93.5,11,1.3,-64.1,-0.78,0.94,3.78,3.83,12.2
2026-05-01 09:00:54,52.404492,-1.493992,118.7,19.01,92.5,12,1.05,-68.1,1.72,0.79,8.25,1.95,13.3
2026-05-01 09:00:55,52.404466,-1.493951,124.2,16.95,92.5,15,1.24,-59.6,-0.87,-0.06,6.26,0.49,10.8
2026-05-01 09:00:56,52.40477,-1.493744,117.6,17.88,92.3,16,1.45,-54.4,0.73,-1.2,5.02,3.08,12.0
2026-05-01 09:00:57,52.40504,-1.493819,122.0,17.77,93.1,13,1.35,-76.0,3.23,-1.51,5.42,4.5,14.5
2026-05-01 09:00:58,52.404918,-1.493471,119.3,19.29,93.3,12,1.21,-67.8,1.33,0.92,7.78,2.29,11.8
2026-05-01 09:00:59,52.404975,-1.493357,124.1,15.01,92.9,17,1.19,-65.3,2.53,-0.83,8.11,3.36,13.1
2026-05-01 09:01:00,52.404965,-1.493333,122.8,15.24,92.8,12,1.13,-59.9,4.35,1.54,3.25,7.53,12.0
2026-05-01 09:01:01,52.405061,-1.493252,122.5,18.44,93.4,11,1.22,-72.4,7.33,0.83,3.53,3.11,11.5
2026-05-01 09:01:02,52.405031,-1.493201,120.9,18.44,92.5,11,1.3,-52.4,2.61,-2.11,5.75,3.81,9.7
2026-05-01 09:01:03,52.405315,-1.493074,118.9,16.42,93.3,11,0.8,-68.6,1.7,-0.85,9.72,5.24,11.0
2026-05-01 09:01:04,52.405323,-1.492941,116.0,17.63,93.0,10,1.24,-73.5,4.19,1.07,3.29,4.83,11.4
2026-05-01 09:01:05,52.405548,-1.492757,121.8,17.46,91.6,13,1.33,-67.5,3.79,-0.84,6.21,6.32,11.5
2026-05-01 09:01:06,52.405399,-1.492637,120.8,16.93,93.1,13,0.89,-60.7,2.74,-0.57,7.9,2.61,11.4
2026-05-01 09:01:07,52.405723,-1.492448,121.6,17.98,92.4,17,1.27,-64.7,-0.23,-3.6,10.39,4.99,13.2
2026-05-01 09:01:08,52.405639,-1.49259,123.6,18.98,91.0,13,1.14,-70.9,3.46,-0.41,7.39,5.05,11.5
2026-05-01 09:01:09,52.405692,-1.49241,118.6,21.23,92.6,11,1.38,-63.0,1.44,1.46,9.68,2.84,11.1
2026-05-01 09:01:10,52.405788,-1.492182,120.7,17.19,92.3,10,1.16,-66.9,0.88,-1.69,8.45,5.62,11.3
2026-05-01 09:01:11,52.405859,-1.492243,119.2,19.12,92.9,16,1.23,-66.9,3.27,-2.55,8.44,6.18,12.8
2026-05-01 09:01:12,52.405795,-1.49194,120.1,18.37,92.0,16,1.29,-57.9,1.15,1.96,4.78,3.91,11.4
2026-05-01 09:01:13,52.406151,-1.491846,120.9,17.36,90.8,10,1.17,-72.9,1.15,1.37,2.33,2.88,11.0
2026-05-01 09:01:14,52.406248,-1.491931,118.0,17.21,91.6,11,1.29,-65.7,1.72,-0.11,4.32,4.22,11.4
2026-05-01 09:01:15,52.406381,-1.491563,119.7,18.17,92.6,13,1.4,-63.1,2.39,0.24,8.03,6.77,11.7
2026-05-01 09:01:16,52.406407,-1.491441,118.5,18.91,92.6,16,1.27,-70.8,2.59,-1.88,8.25,2.87,11.8
2026-05-01 09:01:17,52.406486,-1.491379,120.2,18.02,92.4,17,1.18,-79.5,0.93,2.04,5.49,2.36,10.5
2026-05-01 09:01:18,52.406336,-1.491649,123.1,18.57,92.4,13,1.16,-64.8,1.09,-1.67,10.69,5.32,11.5
2026-05-01 09:01:19,52.406605,-1.491234,118.4,15.83,92.1,16,1.23,-59.5,1.6,-2.18,7.62,4.52,11.1
2026-05-01 09:01:20,52.406557,-1.490984,121.1,13.48,91.3,12,1.24,-65.7,2.02,1.27,7.05,1.53,11.7
2026-05-01 09:01:21,52.406726,-1.490936,122.9,19.51,91.1,17,1.15,-64.9,2.48,-2.08,8.0,5.49,12.1
2026-05-01 09:01:22,52.406977,-1.490982,120.4,17.58,91.4,15,1.08,-62.0,0.03,-3.08,5.48,3.41,12.6
2026-05-01 09:01:23,52.406924,-1.490807,116.9,16.23,91.9,13,1.25,-66.7,1.74,-2.04,9.32,5.32,13.6
2026-05-01 09:01:24,52.406743,-1.490615,120.6,17.53,91.2,14,1.26,-73.6,2.66,-2.44,9.71,3.92,12.5
2026-05-01 09:01:25,52.406987,-1.490294,119.6,16.85,92.2,16,1.54,-64.5,2.32,0.23,7.99,6.82,11.8
2026-05-01 09:01:26,52.407114,-1.49041,115.8,17.45,92.4,15,1.4,-60.4,1.56,0.37,11.0,3.91,11.3
2026-05-01 09:01:27,52.407231,-1.490388,120.0,17.45,91.7,16,1.32,-61.2,0.62,-0.71,4.65,4.44,11.6
2026-05-01 09:01:28,52.407431,-1.490318,120.5,14.16,92.0,15,1.05,-70.9,3.02,-1.32,6.58,2.94,14.8
2026-05-01 09:01:29,52.407504,-1.490019,120.5,18.39,92.4,15,1.11,-61.1,3.69,1.03,6.46,2.9,12.4
2026-05-01 09:01:30,52.407585,-1.4899,120.1,18.42,92.2,15,1.16,-60.6,2.65,1.01,9.22,6.04,11.4
2026-05-01 09:01:31,52.407611,-1.489953,118.5,15.36,91.7,11,1.32,-53.3,2.98,-0.77,6.38,0.41,11.4
2026-05-01 09:01:32,52.407641,-1.489677,122.0,16.93,91.9,13,1.35,-68.2,3.87,0.85,6.65,1.93,10.8
2026-05-01 09:01:33,52.407718,-1.489618,119.3,20.62,91.2,17,1.31,-70.2,3.04,-0.13,7.27,5.64,10.0
2026-05-01 09:01:34,52.407881,-1.489373,121.3,18.62,91.2,17,1.03,-65.0,1.73,-1.37,9.0,5.72,11.6
2026-05-01 09:01:35,52.408014,-1.489411,120.4,18.41,91.2,14,1.26,-59.9,1.58,-0.28,8.95,5.6,12.1
2026-05-01 09:01:36,52.40816,-1.489245,118.3,19.13,90.9,11,1.3,-60.5,4.61,-3.45,6.28,4.01,11.3
2026-05-01 09:01:37,52.408097,-1.489341,122.7,18.5,91.2,11,1.33,-65.0,1.69,0.92,11.9,7.37,9.8
2026-05-01 09:01:38,52.408201,-1.489107,122.7,17.5,91.6,13,1.26,-68.0,2.6,-0.35,10.03,4.86,12.0
2026-05-01 09:01:39,52.408403,-1.489072,120.6,17.28,91.1,14,1.18,-71.8,0.9,-0.03,9.35,3.98,10.8
2026-05-01 09:01:40,52.408229,-1.488896,123.8,18.3,90.7,13,1.3,-63.0,1.11,1.54,9.04,4.59,13.7
2026-05-01 09:01:41,52.408503,-1.488745,124.0,17.79,91.5,11,0.98,-64.7,0.92,0.43,10.36,4.35,11.8
2026-05-01 09:01:42,52.408426,-1.48864,120.5,18.64,91.5,16,1.25,-68.9,3.99,0.79,5.92,7.14,11.7
2026-05-01 09:01:43,52.408747,-1.488417,120.6,18.67,90.1,13,1.25,-61.1,1.68,-3.22,10.27,1.47,12.2
2026-05-01 09:01:44,52.408812,-1.488463,120.6,17.96,91.2,16,1.19,-65.5,0.93,1.55,11.87,4.93,10.8
2026-05-01 09:01:45,52.408919,-1.488315,119.7,19.44,91.4,14,1.12,-51.0,2.86,1.48,15.78,3.62,13.1
2026-05-01 09:01:46,52.408992,-1.488249,119.6,18.0,90.0,17,1.04,-72.6,3.59,-0.89,10.88,5.01,13.4
2026-05-01 09:01:47,52.409006,-1.488152,123.9,19.18,91.2,15,1.17,-61.9,3.74,1.02,11.31,3.35,11.5
2026-05-01 09:01:48,52.408903,-1.487843,117.9,17.06,91.0,11,1.22,-68.8,1.48,-0.53,6.33,2.67,11.8
2026-05-01 09:01:49,52.409138,-1.487939,119.9,17.45,90.9,10,1.07,-66.3,1.11,1.44,11.02,5.73,12.8
2026-05-01 09:01:50,52.409261,-1.487971,119.6,17.26,90.6,16,1.23,-71.9,0.45,0.75,12.86,3.79,13.2
2026-05-01 09:01:51,52.409303,-1.487798,117.6,17.29,89.7,12,1.13,-64.5,1.58,0.67,11.96,4.63,11.0
2026-05-01 09:01:52,52.409327,-1.487428,118.3,19.94,91.4,16,1.31,-68.0,2.75,-0.24,11.27,5.46,12.5
2026-05-01 09:01:53,52.409438,-1.487252,122.0,18.64,91.4,14,1.13,-60.9,1.16,-0.05,9.01,4.38,11.7
2026-05-01 09:01:54,52.409544,-1.487269,120.7,19.23,90.2,12,1.24,-68.6,3.33,1.35,12.22,1.88,14.3
2026-05-01 09:01:55,52.409486,-1.487013,118.6,18.47,89.7,12,1.3,-68.2,1.06,-0.1,13.27,5.46,11.8
2026-05-01 09:01:56,52.40974,-1.487097,119.6,17.41,91.1,12,1.25,-63.0,1.05,-1.39,12.62,0.0,11.1
2026-05-01 09:01:57,52.409811,-1.487061,121.5,19.25,90.4,10,0.99,-66.8,2.89,-1.77,15.17,3.28,10.6
2026-05-01 09:01:58,52.409826,-1.486904,123.6,17.23,90.2,17,1.57,-59.7,0.09,-0.93,13.21,2.11,11.7
2026-05-01 09:01:59,52.409989,-1.486739,118.2,18.03,90.8,12,0.81,-70.1,3.56,2.59,10.34,2.2,12.4
2026-05-01 09:02:00,52.410122,-1.486476,117.2,17.76,90.0,10,1.08,-74.7,1.2,0.69,12.65,5.53,13.9
2026-05-01 09:02:01,52.409987,-1.486387,122.0,19.34,89.5,11,1.14,-60.5,0.78,0.88,13.46,5.26,11.0
2026-05-01 09:02:02,52.410319,-1.486491,118.8,17.17,89.9,11,1.37,-68.2,0.77,0.4,10.61,6.64,11.5
2026-05-01 09:02:03,52.410357,-1.486354,121.9,18.52,89.4,13,1.18,-72.1,1.96,-2.82,9.32,3.48,12.5
2026-05-01 09:02:04,52.41044,-1.486224,118.0,17.8,90.5,16,1.52,-73.7,1.85,2.2,9.29,8.37,13.3
2026-05-01 09:02:05,52.410522,-1.48611,117.5,20.14,89.9,16,1.07,-67.3,2.45,-1.62,10.09,4.91,10.8
2026-05-01 09:02:06,52.410577,-1.485983,118.5,17.82,90.5,13,1.37,-54.8,3.13,1.15,10.74,3.81,12.9
2026-05-01 09:02:07,52.410589,-1.485961,122.7,20.5,90.2,16,1.29,-75.4,3.82,0.6,11.47,6.28,13.2
2026-05-01 09:02:08,52.410599,-1.485796,123.7,18.42,90.2,15,1.24,-64.6,1.41,-0.06,11.72,6.09,13.0
2026-05-01 09:02:09,52.410807,-1.485561,120.9,21.83,91.0,14,1.32,-70.1,2.32,-0.77,13.76,6.16,11.9
2026-05-01 09:02:10,52.410853,-1.485643,118.8,16.78,90.2,15,1.11,-58.2,0.14,1.82,12.61,4.55,12.8
2026-05-01 09:02:11,52.410853,-1.485422,121.1,20.18,90.3,14,1.29,-60.9,4.3,-1.72,13.22,2.71,12.1
2026-05-01 09:02:12,52.411182,-1.485402,122.1,16.72,89.6,10,0.94,-67.7,-0.09,-1.02,13.25,7.86,10.3
2026-05-01 09:02:13,52.411174,-1.485396,119.3,18.19,89.4,17,1.32,-74.0,3.13,1.99,11.48,3.19,11.3
2026-05-01 09:02:14,52.411142,-1.485138,120.0,20.29,89.2,16,1.3,-61.6,5.82,1.09,8.69,5.53,12.9
2026-05-01 09:02:15,52.411099,-1.484731,121.6,20.3,90.1,13,1.12,-64.7,3.61,-0.57,17.74,3.37,12.0
2026-05-01 09:02:16,52.411256,-1.484923,121.3,17.08,89.1,14,1.16,-68.4,2.91,-0.48,16.5,6.29,12.5
2026-05-01 09:02:17,52.411472,-1.484764,119.9,18.08,89.4,13,1.16,-64.6,2.02,-1.55,10.47,4.27,12.2
2026-05-01 09:02:18,52.411481,-1.484667,122.5,18.58,89.8,10,1.2,-67.8,2.34,-1.23,12.2,4.06,12.6
2026-05-01 09:02:19,52.411458,-1.484487,119.8,19.75,89.4,13,1.13,-62.6,2.31,2.13,14.88,3.47,11.5
2026-05-01 09:02:20,52.4117,-1.484582,119.9,16.39,89.4,16,1.43,-71.3,0.64,3.58,13.28,4.91,11.8
2026-05-01 09:02:21,52.411741,-1.484256,124.7,19.68,90.7,10,1.17,-63.1,4.19,0.31,12.0,6.66,10.2
2026-05-01 09:02:22,52.4118,-1.484172,120.4,16.62,89.0,13,1.09,-72.1,2.29,1.42,15.31,4.62,12.5
2026-05-01 09:02:23,52.411799,-1.484117,120.9,19.59,89.1,11,1.08,-74.9,4.61,1.7,13.29,4.76,12.8
2026-05-01 09:02:24,52.41204,-1.483918,120.3,16.44,89.4,12,0.91,-65.2,1.01,-1.07,15.87,4.84,12.3
2026-05-01 09:02:25,52.411983,-1.483913,124.2,18.52,89.6,15,1.12,-67.7,2.27,0.18,14.32,5.55,14.0
2026-05-01 09:02:26,52.412152,-1.483845,117.8,15.98,88.6,14,1.15,-68.5,1.46,0.34,12.96,4.39,11.7
2026-05-01 09:02:27,52.412373,-1.483735,121.6,20.29,89.2,11,1.28,-66.8,2.8,-1.0,16.71,4.53,10.9
2026-05-01 09:02:28,52.412465,-1.483635,121.1,17.79,88.9,10,1.23,-65.4,0.32,0.9,15.5,5.53,13.1
2026-05-01 09:02:29,52.412411,-1.483366,117.2,21.25,89.4,10,1.16,-69.4,2.27,-2.79,16.26,4.89,13.7
2026-05-01 09:02:30,52.412199,-1.483188,118.7,18.09,89.1,14,1.11,-65.2,2.5,0.76,18.84,4.54,12.0
2026-05-01 09:02:31,52.412666,-1.483316,119.8,18.04,89.1,12,1.27,-64.0,2.21,-1.62,15.14,4.8,11.9
2026-05-01 09:02:32,52.412581,-1.483158,119.4,19.79,89.0,11,1.18,-67.5,0.82,-0.81,15.31,4.05,12.1
2026-05-01 09:02:33,52.412618,-1.483027,119.0,17.53,89.8,15,1.16,-58.9,2.27,1.0,12.75,3.05,12.1
2026-05-01 09:02:34,52.412914,-1.482627,119.2,16.27,89.7,12,1.14,-64.4,2.44,1.19,12.52,2.23,12.1
2026-05-01 09:02:35,52.412739,-1.482717,125.2,17.17,89.1,13,1.18,-64.8,1.81,-2.06,16.91,3.35,12.0
2026-05-01 09:02:36,52.413078,-1.482585,120.0,17.07,89.2,16,1.24,-67.1,1.25,-0.65,16.55,3.22,11.9
2026-05-01 09:02:37,52.413181,-1.482626,119.5,19.07,88.7,11,0.97,-68.6,3.03,0.76,18.55,4.0,12.0
2026-05-01 09:02:38,52.413224,-1.482352,118.7,21.28,89.4,14,1.04,-57.2,1.11,0.19,16.7,4.8,11.5
2026-05-01 09:02:39,52.413278,-1.482397,116.7,19.01,88.6,15,1.27,-69.0,-0.05,-0.98,17.48,4.41,11.1
2026-05-01 09:02:40,52.41333,-1.482285,122.1,17.58,88.5,12,1.21,-58.2,3.97,-0.8,16.97,3.82,11.2
2026-05-01 09:02:41,52.413376,-1.482311,121.2,16.51,88.7,10,1.26,-58.3,5.16,-2.4,16.11,4.11,10.7
2026-05-01 09:02:42,52.413399,-1.481859,118.2,16.84,89.3,10,1.03,-59.2,-0.28,0.27,17.88,4.86,12.8
2026-05-01 09:02:43,52.413828,-1.481805,119.2,17.81,88.9,17,1.06,-67.5,4.95,1.24,17.83,1.5,12.9
2026-05-01 09:02:44,52.41363,-1.48173,117.2,18.96,88.5,10,1.31,-64.4,3.6,1.11,17.77,7.36,12.4
2026-05-01 09:02:45,52.413665,-1.481523,117.4,20.12,88.4,15,1.42,-66.9,2.01,0.23,17.13,4.84,10.6
2026-05-01 09:02:46,52.413832,-1.481643,117.4,16.36,88.4,10,1.29,-61.2,0.88,1.66,14.53,1.46,11.6
2026-05-01 09:02:47,52.413982,-1.481353,121.8,14.42,88.2,14,1.01,-70.8,4.05,0.68,17.75,3.16,11.5
2026-05-01 09:02:48,52.41411,-1.481368,116.9,17.97,88.5,17,1.05,-58.0,2.51,0.01,18.18,2.15,11.9
2026-05-01 09:02:49,52.414068,-1.481095,120.2,17.86,88.9,16,1.1,-67.1,0.92,2.74,22.36,5.46,13.1
2026-05-01 09:02:50,52.414156,-1.480937,117.8,20.02,88.1,12,1.22,-63.5,1.13,2.48,19.82,4.4,11.9
2026-05-01 09:02:51,52.414178,-1.481034,116.1,16.62,88.2,14,1.16,-66.9,2.31,-0.69,19.18,3.8,11.0
2026-05-01 09:02:52,52.414316,-1.480922,121.5,19.32,88.5,14,1.37,-61.1,-0.07,0.36,12.82,4.23,12.1
2026-05-01 09:02:53,52.414511,-1.48076,122.0,20.31,87.8,10,1.28,-65.5,5.78,1.19,17.3,3.23,12.0
2026-05-01 09:02:54,52.414502,-1.480618,123.0,17.66,87.3,11,0.87,-64.0,3.75,-5.04,17.85,6.48,11.7
2026-05-01 09:02:55,52.414555,-1.480503,119.3,20.54,88.2,17,1.26,-74.8,0.03,0.9,19.44,3.82,13.4
2026-05-01 09:02:56,52.414692,-1.480438,118.6,15.83,88.0,17,1.27,-54.1,3.35,-0.94,19.01,4.27,11.9
2026-05-01 09:02:57,52.41468,-1.480294,120.6,18.38,88.6,13,1.37,-62.7,0.45,1.42,17.8,2.73,12.8
2026-05-01 09:02:58,52.414626,-1.479955,120.3,17.55,88.2,13,1.06,-62.0,4.1,-0.91,19.02,6.24,14.2
2026-05-01 09:02:59,52.414876,-1.480105,123.3,19.07,88.6,14,1.21,-70.3,3.24,0.39,18.32,4.41,11.5
2026-05-01 09:03:00,52.414709,-1.480029,121.3,18.76,88.0,17,1.27,-63.1,-0.1,-1.26,15.72,5.31,12.1
2026-05-01 09:03:01,52.415065,-1.479841,117.1,16.12,88.3,15,1.04,-61.5,2.12,1.53,19.58,1.77,12.9
2026-05-01 09:03:02,52.415216,-1.479745,122.1,18.01,87.3,17,1.01,-68.4,0.96,-1.86,18.78,1.13,13.6
2026-05-01 09:03:03,52.415357,-1.479744,121.9,18.89,88.4,13,1.37,-70.3,0.91,1.33,14.45,4.53,12.6
2026-05-01 09:03:04,52.415395,-1.479559,120.0,17.11,88.5,16,1.27,-61.0,2.37,0.03,18.5,3.94,10.8
2026-05-01 09:03:05,52.415429,-1.479404,120.5,18.63,87.6,12,1.04,-63.4,3.43,0.78,20.64,4.48,12.1
2026-05-01 09:03:06,52.415406,-1.479259,123.4,20.14,87.1,15,1.13,-66.1,-0.77,-0.98,18.44,1.98,13.4
2026-05-01 09:03:07,52.415482,-1.479197,123.2,16.21,87.6,12,1.04,-69.1,4.53,1.21,15.89,4.51,12.5
2026-05-01 09:03:08,52.415654,-1.479069,117.5,22.31,88.3,11,1.02,-65.9,3.13,0.42,22.58,3.05,12.1
2026-05-01 09:03:09,52.415672,-1.479004,124.4,15.94,86.9,15,1.2,-60.2,2.6,1.95,19.15,3.79,13.2
2026-05-01 09:03:10,52.415746,-1.478895,120.2,18.46,87.7,10,1.28,-67.8,0.47,0.15,23.52,3.07,11.8
2026-05-01 09:03:11,52.41593,-1.478765,119.4,15.12,87.3,14,1.09,-62.7,1.33,-2.92,16.99,2.82,12.5
2026-05-01 09:03:12,52.415924,-1.478751,121.8,17.31,87.9,16,1.11,-57.4,0.19,-0.86,17.68,4.48,10.8
2026-05-01 09:03:13,52.415911,-1.478746,119.5,19.03,87.9,17,1.36,-65.3,-0.15,0.4,13.44,4.52,10.7
2026-05-01 09:03:14,52.416154,-1.478553,118.9,19.49,87.3,17,1.24,-70.2,1.35,-1.05,20.72,2.74,13.4
2026-05-01 09:03:15,52.416164,-1.478434,120.7,18.24,88.1,11,1.09,-64.9,2.78,2.6,20.84,3.7,12.5
2026-05-01 09:03:16,52.416394,-1.478076,120.0,18.33,87.7,15,1.34,-65.6,0.77,0.06,17.18,3.72,10.6
2026-05-01 09:03:17,52.416555,-1.478135,123.2,19.72,87.4,16,1.28,-66.1,2.21,0.14,19.65,3.62,11.3
2026-05-01 09:03:18,52.416585,-1.477981,120.0,17.02,87.4,15,0.95,-70.2,2.66,-2.65,19.17,3.47,11.0
2026-05-01 09:03:19,52.416636,-1.477825,122.8,19.48,86.4,17,1.29,-64.7,1.97,2.6,19.06,6.52,12.1
2026-05-01 09:03:20,52.416812,-1.477617,121.0,19.2,87.5,17,1.44,-63.2,3.03,-1.58,21.55,5.05,12.0
2026-05-01 09:03:21,52.416661,-1.477462,116.1,18.13,88.9,11,1.26,-57.9,0.06,-1.58,21.85,3.79,11.9
2026-05-01 09:03:22,52.416785,-1.477474,120.1,20.63,87.7,16,1.44,-69.1,1.72,-2.2,24.35,4.8,12.3
2026-05-01 09:03:23,52.416945,-1.477466,115.3,18.76,86.7,17,1.36,-66.1,5.13,3.66,20.32,4.05,11.5
2026-05-01 09:03:24,52.41697,-1.47749,119.7,18.13,86.8,11,1.21,-70.9,1.13,-1.38,21.54,3.24,13.3
2026-05-01 09:03:25,52.417107,-1.477125,121.5,18.59,88.0,13,1.46,-66.3,2.07,0.32,21.79,2.56,11.9
2026-05-01 09:03:26,52.417138,-1.477078,121.1,19.35,87.3,11,1.44,-64.9,-1.02,-3.15,17.82,1.19,12.2
2026-05-01 09:03:27,52.417233,-1.477099,120.6,15.82,87.2,15,0.92,-69.2,-0.86,0.69,24.65,3.19,13.1
2026-05-01 09:03:28,52.4173,-1.476937,122.4,17.37,86.6,11,1.01,-66.4,0.93,-0.61,22.56,5.06,11.7
2026-05-01 09:03:29,52.417501,-1.476999,119.9,18.97,87.2,15,1.56,-68.9,2.7,-0.02,22.66,4.06,10.4
2026-05-01 09:03:30,52.417491,-1.476726,121.5,18.7,87.3,15,1.18,-70.9,3.12,-1.52,16.3,4.42,11.4
2026-05-01 09:03:31,52.417462,-1.476404,118.7,17.0,86.0,16,1.19,-67.0,2.55,0.89,22.65,1.78,12.1
2026-05-01 09:03:32,52.417664,-1.476306,120.2,17.91,86.1,16,1.24,-59.8,3.45,1.06,19.66,3.7,13.5
2026-05-01 09:03:33,52.417699,-1.476291,120.0,19.05,87.1,14,1.02,-67.9,1.22,0.6,22.97,2.82,11.6
2026-05-01 09:03:34,52.417988,-1.476247,119.2,17.9,86.7,17,1.18,-65.8,0.48,-1.42,21.75,4.52,13.1
2026-05-01 09:03:35,52.417963,-1.47608,121.7,19.84,86.4,10,1.01,-72.0,1.37,-0.56,20.48,2.77,13.3
2026-05-01 09:03:36,52.418137,-1.47595,118.9,18.27,86.6,17,1.15,-72.4,3.44,2.74,18.95,3.76,12.0
2026-05-01 09:03:37,52.418104,-1.476,119.8,18.51,86.5,16,1.26,-61.0,-1.8,0.92,22.01,4.37,12.3
2026-05-01 09:03:38,52.418269,-1.475817,122.1,16.88,86.4,16,1.06,-60.4,3.3,-0.94,23.23,1.78,11.3
2026-05-01 09:03:39,52.418337,-1.475473,117.6,18.1,86.8,13,1.54,-62.0,0.92,-0.0,25.36,2.72,12.4
2026-05-01 09:03:40,52.418399,-1.475645,118.1,18.55,86.7,17,1.1,-70.6,2.9,0.65,22.72,6.22,11.6
2026-05-01 09:03:41,52.418253,-1.475529,119.8,15.2,85.7,11,1.4,-65.2,2.5,0.67,21.41,2.59,11.1
2026-05-01 09:03:42,52.41853,-1.475298,124.5,19.66,85.7,16,1.09,-66.0,2.27,0.95,24.96,3.86,12.6
2026-05-01 09:03:43,52.41873,-1.475199,124.6,17.26,86.0,12,1.1,-66.8,1.46,1.76,23.93,3.01,13.4
2026-05-01 09:03:44,52.418678,-1.475068,119.1,16.5,85.6,17,1.19,-64.7,4.52,2.07,21.9,5.05,10.5
2026-05-01 09:03:45,52.418877,-1.474783,118.8,18.87,86.0,14,1.29,-64.2,1.51,-1.02,20.36,4.26,11.7
2026-05-01 09:03:46,52.418796,-1.475003,118.0,16.15,86.9,10,1.28,-62.5,4.29,0.87,20.33,5.22,11.8
2026-05-01 09:03:47,52.418896,-1.474876,122.1,15.8,86.1,16,1.0,-58.0,3.35,-1.62,24.44,2.58,13.1
2026-05-01 09:03:48,52.419079,-1.4748,120.1,17.51,86.2,17,1.3,-62.3,0.33,-0.01,26.21,4.66,13.3
2026-05-01 09:03:49,52.418953,-1.474494,119.8,18.62,87.0,16,0.96,-73.4,2.02,-1.21,23.15,5.85,12.3
2026-05-01 09:03:50,52.419345,-1.474216,116.2,20.91,86.5,10,1.17,-58.4,0.6,1.39,23.07,5.12,11.6
2026-05-01 09:03:51,52.419233,-1.474339,119.2,17.79,85.5,10,1.46,-73.2,2.49,-2.19,24.05,1.12,12.9
2026-05-01 09:03:52,52.419475,-1.474207,120.6,18.04,85.7,14,1.32,-65.2,2.13,-0.77,23.06,7.22,13.8
2026-05-01 09:03:53,52.419368,-1.474198,123.6,17.25,85.5,13,1.34,-67.1,2.16,2.42,24.01,3.87,11.3
2026-05-01 09:03:54,52.419586,-1.473941,122.2,17.53,85.3,16,0.96,-55.5,1.99,-0.93,21.48,4.47,11.8
2026-05-01 09:03:55,52.419553,-1.473854,121.7,18.75,86.5,13,1.41,-64.7,2.19,2.43,24.37,2.58,11.2
2026-05-01 09:03:56,52.419524,-1.473718,119.2,19.37,85.0,10,1.11,-65.0,1.19,0.48,24.11,5.09,11.4
2026-05-01 09:03:57,52.419719,-1.473405,122.4,16.93,85.7,12,1.02,-60.6,3.62,1.72,22.34,4.1,12.0
2026-05-01 09:03:58,52.419833,-1.473681,122.2,18.72,85.8,17,1.25,-61.4,1.48,-1.26,25.77,3.33,12.9
2026-05-01 09:03:59,52.419976,-1.473358,120.7,16.09,86.2,14,1.47,-67.3,3.42,1.0,20.06,2.63,8.7
2026-05-01 09:04:00,52.419932,-1.473257,124.4,16.41,85.3,11,1.08,-70.0,2.89,-0.6,24.12,4.33,13.6
2026-05-01 09:04:01,52.420146,-1.473334,122.0,18.02,85.9,11,1.13,-58.3,1.45,-1.6,24.31,3.25,10.3
2026-05-01 09:04:02,52.420152,-1.473049,121.8,16.16,85.3,14,1.38,-56.9,2.32,0.57,22.75,4.04,12.1
2026-05-01 09:04:03,52.420063,-1.473026,118.7,19.96,86.1,15,1.37,-72.0,3.77,-0.57,27.51,4.1,9.8
2026-05-01 09:04:04,52.420443,-1.472883,120.3,16.71,86.3,12,1.04,-57.5,1.91,-0.18,26.01,5.08,12.7
2026-05-01 09:04:05,52.420536,-1.472744,119.8,16.09,84.8,15,1.29,-61.8,3.01,1.43,20.37,2.31,13.8
2026-05-01 09:04:06,52.420476,-1.47269,118.0,16.83,84.7,11,1.04,-67.1,2.62,-2.74,26.05,4.28,13.2
2026-05-01 09:04:07,52.420576,-1.472717,120.3,18.8,85.7,15,1.11,-67.7,2.45,-1.11,26.08,1.7,12.3
2026-05-01 09:04:08,52.420626,-1.472419,117.8,19.1,84.9,14,1.02,-55.7,0.8,2.43,21.71,5.81,12.4
2026-05-01 09:04:09,52.4208,-1.472191,121.7,19.85,86.1,15,1.17,-61.9,3.1,1.3,23.86,1.56,11.7
2026-05-01 09:04:10,52.420786,-1.472125,120.0,20.85,85.7,13,0.86,-60.8,1.73,0.46,27.34,4.43,11.6
2026-05-01 09:04:11,52.421011,-1.472089,119.1,17.97,85.2,14,1.16,-65.7,2.16,-0.66,24.68,2.48,12.8
2026-05-01 09:04:12,52.420997,-1.471999,115.0,16.73,84.6,10,1.18,-56.1,0.96,-0.09,29.73,2.21,9.5
2026-05-01 09:04:13,52.420965,-1.471857,118.9,16.66,84.4,10,1.23,-59.2,0.55,-1.82,22.53,3.16,12.9
2026-05-01 09:04:14,52.421247,-1.47165,120.8,19.07,86.0,16,1.21,-70.0,2.19,-1.85,24.08,2.2,12.1
2026-05-01 09:04:15,52.421309,-1.471853,118.4,21.42,85.3,14,1.01,-64.3,2.83,0.41,28.9,2.33,11.6
2026-05-01 09:04:16,52.42116,-1.471387,118.6,15.91,85.8,17,1.32,-70.0,0.51,0.15,24.62,2.37,13.1
2026-05-01 09:04:17,52.421447,-1.4715,121.6,20.5,84.0,14,1.29,-60.1,2.63,0.22,24.9,4.28,13.6
2026-05-01 09:04:18,52.421568,-1.471455,120.0,18.29,84.7,16,0.92,-61.1,2.23,-0.87,26.58,4.92,10.8
2026-05-01 09:04:19,52.421586,-1.471088,119.4,19.51,84.9,16,1.24,-67.0,0.11,0.15,25.52,7.05,12.5
2026-05-01 09:04:20,52.421631,-1.470946,116.7,16.97,85.0,16,1.17,-61.6,2.34,-1.24,24.53,2.42,10.5
2026-05-01 09:04:21,52.421885,-1.471123,121.3,20.18,85.0,12,1.21,-67.1,3.11,-0.01,29.78,3.28,12.4
2026-05-01 09:04:22,52.421779,-1.470927,122.4,21.06,84.5,14,1.33,-61.1,2.1,-0.02,24.64,4.86,11.3
2026-05-01 09:04:23,52.422103,-1.47076,121.0,20.74,84.3,15,1.41,-61.3,-0.37,-1.11,25.23,3.17,12.3
2026-05-01 09:04:24,52.42194,-1.470641,113.7,17.25,84.7,13,1.44,-62.4,2.4,2.55,28.09,3.75,11.1
2026-05-01 09:04:25,52.42219,-1.47059,120.0,18.26,85.6,17,1.19,-70.4,0.11,0.61,28.32,3.94,12.8
2026-05-01 09:04:26,52.422359,-1.47041,119.9,14.98,84.8,11,1.19,-62.4,3.61,-3.85,25.01,4.41,11.4
2026-05-01 09:04:27,52.422134,-1.470306,121.5,17.99,85.0,14,1.09,-60.6,2.63,0.44,26.83,3.27,13.3
2026-05-01 09:04:28,52.422394,-1.470131,121.1,18.24,84.8,14,1.07,-63.3,3.22,-0.2,25.42,5.48,12.0
2026-05-01 09:04:29,52.422357,-1.469982,119.5,19.85,84.0,12,1.27,-78.1,0.44,-0.55,28.19,4.47,13.0
2026-05-01 09:04:30,52.422593,-1.470102,120.8,17.42,84.3,15,1.0,-69.6,5.05,0.87,25.77,2.48,12.3
2026-05-01 09:04:31,52.422739,-1.469739,119.6,18.99,84.9,14,1.21,-72.9,1.25,-0.1,28.32,6.37,10.8
2026-05-01 09:04:32,52.422857,-1.469716,119.4,15.39,84.9,16,1.3,-65.0,0.91,1.4,25.5,3.84,11.8
2026-05-01 09:04:33,52.422865,-1.469836,118.5,15.97,84.3,13,1.27,-61.3,1.06,-1.11,26.25,6.65,13.3
2026-05-01 09:04:34,52.422813,-1.469491,121.8,17.13,84.5,13,1.25,-64.7,4.1,-0.12,24.43,4.42,11.2
2026-05-01 09:04:35,52.423002,-1.469352,118.3,19.2,84.0,10,1.16,-69.6,0.72,0.7,28.87,4.5,12.5
2026-05-01 09:04:36,52.423276,-1.469597,118.5,15.96,84.3,10,1.3,-61.7,2.22,-0.53,25.09,5.44,12.3
2026-05-01 09:04:37,52.423222,-1.469312,121.7,16.33,84.5,15,1.31,-63.1,2.03,3.14,28.89,1.68,13.3
2026-05-01 09:04:38,52.423403,-1.469025,121.4,16.43,83.7,16,1.33,-56.0,0.31,-2.4,27.87,2.85,12.5
2026-05-01 09:04:39,52.423379,-1.468989,118.8,15.18,84.3,10,1.18,-68.5,2.22,-0.3,32.67,3.45,10.9
2026-05-01 09:04:40,52.423229,-1.468801,118.8,19.58,83.4,15,1.36,-68.4,1.48,-4.07,31.01,5.22,11.5
2026-05-01 09:04:41,52.423404,-1.468771,121.6,16.64,84.4,15,1.2,-67.6,1.77,-1.76,25.6,3.52,11.2
2026-05-01 09:04:42,52.423586,-1.468613,120.8,16.16,83.8,14,1.38,-71.5,1.62,3.45,27.98,5.86,11.5
2026-05-01 09:04:43,52.423505,-1.468433,123.3,18.58,83.7,16,1.02,-67.4,2.15,0.19,27.03,3.46,12.0
2026-05-01 09:04:44,52.423751,-1.468406,122.9,17.36,83.7,11,1.16,-58.8,2.65,2.67,30.38,4.04,11.2
2026-05-01 09:04:45,52.423573,-1.468304,116.5,17.91,83.9,15,1.36,-62.9,1.54,-1.96,28.73,3.29,11.3
2026-05-01 09:04:46,52.423842,-1.468059,117.2,19.25,83.7,17,1.0,-63.1,3.51,-0.02,29.36,5.51,12.0
2026-05-01 09:04:47,52.423992,-1.467961,117.4,18.7,83.7,10,0.98,-65.5,1.51,-0.25,28.18,2.19,13.4
2026-05-01 09:04:48,52.42383,-1.467969,122.1,20.25,84.0,13,1.38,-69.9,1.63,0.71,29.08,3.73,10.5
2026-05-01 09:04:49,52.424155,-1.467705,124.5,16.01,84.6,17,1.22,-66.7,1.35,2.6,33.67,4.5,11.8
2026-05-01 09:04:50,52.424274,-1.46766,114.5,20.26,83.6,11,1.34,-62.6,3.37,-1.52,29.33,3.87,12.0
2026-05-01 09:04:51,52.42436,-1.46779,120.0,17.85,83.9,14,1.29,-57.2,2.75,2.97,32.02,2.9,12.8
2026-05-01 09:04:52,52.424186,-1.467531,118.0,15.39,83.0,11,1.23,-62.2,1.46,0.19,33.5,2.74,12.0
2026-05-01 09:04:53,52.424292,-1.467456,121.9,19.95,84.2,13,1.4,-66.7,4.66,-1.56,31.78,3.25,12.7
2026-05-01 09:04:54,52.424632,-1.467149,118.1,21.1,84.1,14,1.13,-65.0,2.35,1.53,31.4,5.02,12.4
2026-05-01 09:04:55,52.424716,-1.467079,123.9,18.25,83.4,10,0.98,-62.8,3.74,2.6,29.29,5.1,13.5
2026-05-01 09:04:56,52.42458,-1.467186,119.1,17.73,83.4,14,1.06,-60.1,1.4,-0.94,29.56,4.06,11.4
2026-05-01 09:04:57,52.424636,-1.466939,121.6,19.77,83.6,10,1.09,-66.2,0.58,-2.75,26.13,4.11,11.0
2026-05-01 09:04:58,52.424949,-1.466822,119.5,18.08,83.2,16,1.01,-71.4,-1.49,1.01,28.69,3.81,10.8
2026-05-01 09:04:59,52.42474,-1.466902,116.2,15.92,83.1,12,1.39,-76.2,4.46,0.79,28.3,4.38,10.9
2026-05-01 09:05:00,52.425086,-1.46667,121.3,17.53,83.0,10,1.32,-56.8,0.93,0.31,28.7,4.11,11.4
2026-05-01 09:05:01,52.424938,-1.466607,118.3,19.65,83.4,17,1.09,-67.8,2.76,-1.05,28.98,4.63,11.7
2026-05-01 09:05:02,52.425042,-1.466644,122.2,17.79,83.6,11,1.24,-64.3,0.95,0.61,28.0,4.55,10.8
2026-05-01 09:05:03,52.425278,-1.466437,115.6,19.76,82.7,14,1.26,-67.4,0.2,2.16,26.92,3.89,12.1
2026-05-01 09:05:04,52.425419,-1.466054,122.3,18.46,83.6,11,1.29,-61.9,0.69,0.49,29.91,2.37,11.5
2026-05-01 09:05:05,52.425505,-1.466012,119.1,15.82,83.5,16,1.46,-67.0,3.43,-3.12,32.45,3.14,13.7
2026-05-01 09:05:06,52.425533,-1.465839,118.9,19.07,82.7,15,1.22,-59.4,0.87,-0.45,32.3,4.12,13.3
2026-05-01 09:05:07,52.425515,-1.465917,118.8,17.38,83.1,15,1.21,-62.0,2.43,1.1,27.01,1.68,12.7
2026-05-01 09:05:08,52.425604,-1.465594,116.0,14.64,83.4,16,1.29,-58.0,0.75,2.24,29.29,3.01,12.0
2026-05-01 09:05:09,52.425791,-1.465763,120.3,17.26,83.2,14,1.16,-69.1,1.47,0.85,31.93,6.92,12.5
2026-05-01 09:05:10,52.425919,-1.4654,123.1,21.14,82.3,14,1.43,-60.6,3.09,-2.16,29.4,4.97,11.3
2026-05-01 09:05:11,52.425844,-1.46534,120.9,16.61,83.1,10,0.87,-68.6,1.58,-0.33,32.66,3.13,10.6
2026-05-01 09:05:12,52.425947,-1.465313,122.1,20.8,82.6,14,1.29,-66.2,2.37,2.35,31.17,0.0,11.1
2026-05-01 09:05:13,52.426039,-1.465315,118.3,17.63,83.4,14,1.34,-72.0,1.86,-3.27,30.19,4.42,10.8
2026-05-01 09:05:14,52.426188,-1.465043,120.2,17.97,83.0,14,0.99,-60.6,2.94,1.35,32.12,2.89,12.1
2026-05-01 09:05:15,52.426171,-1.465002,120.0,17.2,82.9,11,0.91,-60.4,4.08,2.76,29.37,6.71,13.8
2026-05-01 09:05:16,52.426347,-1.464919,120.5,17.82,82.2,16,0.97,-68.6,1.4,-0.04,32.93,4.18,13.1
2026-05-01 09:05:17,52.426453,-1.464865,123.4,17.56,82.9,11,1.2,-62.6,0.86,0.31,32.28,2.7,12.5
2026-05-01 09:05:18,52.426566,-1.464574,119.5,17.91,82.2,16,1.45,-61.5,1.16,2.02,30.8,2.49,13.2
2026-05-01 09:05:19,52.426644,-1.4646,118.6,13.35,82.3,16,0.99,-61.4,1.16,-0.93,34.54,4.7,11.0
2026-05-01 09:05:20,52.426557,-1.464206,122.9,19.56,82.0,17,1.2,-70.1,1.73,0.21,32.21,3.19,13.3
2026-05-01 09:05:21,52.426771,-1.464312,122.3,15.8,82.9,16,1.44,-68.0,1.15,0.95,35.14,4.49,11.7
2026-05-01 09:05:22,52.426893,-1.464209,121.1,13.58,81.9,15,1.29,-63.7,2.16,1.51,33.15,3.47,11.4
2026-05-01 09:05:23,52.426863,-1.464105,120.0,18.31,82.9,11,1.2,-69.5,1.86,2.5,31.37,3.63,11.9
2026-05-01 09:05:24,52.426976,-1.463789,119.6,18.11,82.6,11,0.98,-71.9,2.65,1.11,32.6,5.02,13.0
2026-05-01 09:05:25,52.427238,-1.463768,120.9,19.54,82.5,10,1.35,-65.4,-0.56,0.48,33.09,3.57,14.3
2026-05-01 09:05:26,52.426985,-1.463857,118.5,16.93,81.8,13,1.39,-60.2,5.11,-0.4,31.64,2.89,13.7
2026-05-01 09:05:27,52.427482,-1.463436,118.1,18.74,82.5,16,1.82,-68.4,0.85,-0.13,32.16,5.11,11.9
2026-05-01 09:05:28,52.427471,-1.463436,121.4,17.99,82.3,16,1.08,-61.3,2.12,0.13,33.78,5.83,13.2
2026-05-01 09:05:29,52.427402,-1.463527,120.2,19.63,81.9,15,0.94,-65.0,0.15,-0.84,32.54,2.72,12.1
2026-05-01 09:05:30,52.427678,-1.463382,121.7,18.34,82.6,17,1.27,-65.4,4.5,-0.63,35.09,2.85,13.1
2026-05-01 09:05:31,52.427503,-1.463156,119.4,18.7,82.1,15,1.07,-69.7,2.91,-0.19,36.2,3.31,9.9
2026-05-01 09:05:32,52.427735,-1.463132,118.8,16.58,82.1,13,1.16,-65.0,3.82,1.53,34.0,2.7,12.7
2026-05-01 09:05:33,52.427627,-1.462775,116.0,18.73,82.3,16,1.38,-61.4,1.54,-0.05,32.43,4.97,12.3
2026-05-01 09:05:34,52.428007,-1.462901,121.5,20.68,81.8,11,1.44,-60.5,1.77,0.22,33.25,5.72,12.0
2026-05-01 09:05:35,52.427869,-1.462653,119.9,18.78,82.2,10,1.42,-49.0,3.87,-0.07,32.23,4.63,11.9
2026-05-01 09:05:36,52.428103,-1.46277,121.7,18.77,82.7,12,1.04,-66.6,1.61,-0.72,32.09,5.36,11.6
2026-05-01 09:05:37,52.428121,-1.462554,118.6,17.56,82.5,16,1.03,-64.5,0.39,2.74,35.11,3.73,12.1
2026-05-01 09:05:38,52.428146,-1.462305,119.7,16.67,81.5,13,1.13,-61.7,3.69,-0.94,33.73,2.19,13.3
2026-05-01 09:05:39,52.428213,-1.462398,117.1,17.7,81.4,17,1.44,-67.9,0.73,1.87,35.3,3.8,12.8
2026-05-01 09:05:40,52.428604,-1.462191,121.5,18.89,81.7,14,1.39,-61.1,1.78,0.98,34.81,4.56,13.3
2026-05-01 09:05:41,52.428367,-1.462037,120.7,17.49,82.7,11,1.12,-60.0,1.35,1.42,33.55,5.2,10.7
2026-05-01 09:05:42,52.42857,-1.462007,123.1,17.74,82.8,10,1.27,-62.7,3.4,-0.96,38.07,2.84,12.9
2026-05-01 09:05:43,52.428669,-1.46187,119.2,19.21,82.2,13,1.2,-65.2,2.87,0.5,35.96,5.27,11.6
2026-05-01 09:05:44,52.428799,-1.461804,121.4,18.64,82.8,11,1.26,-60.7,2.59,-0.8,37.65,4.94,10.5
2026-05-01 09:05:45,52.428878,-1.461741,119.7,17.98,81.3,16,1.33,-63.7,1.7,-0.19,32.57,2.71,12.4
2026-05-01 09:05:46,52.428741,-1.461585,120.9,16.98,82.1,15,1.25,-63.4,0.96,-0.14,35.18,5.22,12.2
2026-05-01 09:05:47,52.428934,-1.46143,117.7,18.29,81.7,13,1.01,-66.8,1.62,-1.95,32.82,3.31,12.9
2026-05-01 09:05:48,52.429085,-1.461293,123.9,17.86,82.0,12,1.4,-61.5,0.91,0.7,38.41,1.33,12.8
2026-05-01 09:05:49,52.429132,-1.461241,117.8,19.01,81.3,10,1.3,-70.2,3.07,-2.02,37.78,4.8,11.9
2026-05-01 09:05:50,52.429116,-1.461018,122.4,20.85,81.6,16,1.35,-63.3,2.94,4.72,37.0,5.55,11.1
2026-05-01 09:05:51,52.429222,-1.460744,119.6,16.92,81.4,15,1.12,-63.2,4.3,1.94,30.27,3.94,12.3
2026-05-01 09:05:52,52.429346,-1.460876,119.0,17.46,81.0,11,1.33,-70.3,1.72,0.85,36.45,4.92,11.9
2026-05-01 09:05:53,52.429322,-1.460914,122.3,17.08,81.3,11,1.21,-53.1,-0.25,-2.19,34.7,5.27,11.3
2026-05-01 09:05:54,52.429515,-1.460766,119.8,18.63,81.3,11,0.82,-74.2,4.1,-1.63,35.02,1.66,10.3
2026-05-01 09:05:55,52.429661,-1.460412,118.5,17.51,80.8,12,1.27,-75.0,1.24,0.07,36.98,3.17,10.6
2026-05-01 09:05:56,52.429739,-1.460286,123.0,20.7,81.5,14,1.25,-62.6,2.69,1.92,38.39,5.28,11.0
2026-05-01 09:05:57,52.429819,-1.460223,123.7,15.81,80.9,14,1.28,-62.6,1.84,0.86,35.25,0.72,13.3
2026-05-01 09:05:58,52.429762,-1.460184,123.9,18.78,81.5,16,1.45,-64.9,1.29,0.65,35.61,3.72,10.2
2026-05-01 09:05:59,52.429772,-1.460103,120.5,18.43,80.9,15,1.34,-65.8,2.17,-0.64,36.73,2.88,11.9
2026-05-01 09:06:00,52.430053,-1.45999,121.0,19.1,80.5,10,1.08,-66.0,2.94,-1.44,36.9,3.78,11.9
2026-05-01 09:06:01,52.43003,-1.459604,125.3,18.91,81.7,11,1.17,-61.6,-0.5,-0.32,36.33,5.44,11.3
2026-05-01 09:06:02,52.430224,-1.459842,115.9,18.37,80.3,17,1.27,-67.7,6.45,1.58,31.44,4.34,11.3
2026-05-01 09:06:03,52.430426,-1.459701,123.1,17.35,81.0,15,1.23,-69.1,0.65,-0.08,34.75,2.74,10.2
2026-05-01 09:06:04,52.430371,-1.459462,123.2,16.33,80.8,13,1.4,-66.9,1.35,-2.55,38.93,4.04,11.8
2026-05-01 09:06:05,52.430412,-1.459307,121.2,18.87,80.7,10,0.99,-66.9,3.61,0.26,38.29,3.67,9.6
2026-05-01 09:06:06,52.430444,-1.459319,118.5,17.81,80.6,13,1.43,-61.5,-0.26,0.34,36.4,5.22,12.9
2026-05-01 09:06:07,52.430507,-1.459252,121.5,14.25,81.6,13,1.04,-67.0,-0.68,-1.35,39.39,4.27,12.7
2026-05-01 09:06:08,52.430813,-1.459098,122.0,17.76,80.8,13,1.15,-62.3,4.34,-3.38,36.36,1.88,10.4
2026-05-01 09:06:09,52.430524,-1.459084,120.6,16.24,80.2,13,1.1,-53.1,2.68,0.0,40.27,4.35,13.0
2026-05-01 09:06:10,52.430833,-1.458772,122.0,19.94,80.9,16,1.43,-60.7,0.48,-0.36,40.04,4.44,12.9
2026-05-01 09:06:11,52.431054,-1.458773,120.1,18.78,80.1,12,1.36,-63.0,1.13,0.76,36.92,4.34,11.8
2026-05-01 09:06:12,52.430917,-1.458615,120.3,21.52,80.8,16,1.26,-68.3,1.14,2.16,38.4,3.91,12.8
2026-05-01 09:06:13,52.431095,-1.458567,117.5,18.29,80.4,10,1.31,-63.1,1.86,0.57,35.61,2.83,11.6
2026-05-01 09:06:14,52.431157,-1.458367,120.2,14.66,80.4,17,1.19,-63.5,1.09,-0.38,38.05,3.61,11.4
2026-05-01 09:06:15,52.431325,-1.458357,117.0,18.28,80.8,12,1.12,-74.2,2.54,0.24,40.36,4.69,14.4
2026-05-01 09:06:16,52.431496,-1.458223,121.0,16.58,80.4,12,1.25,-64.2,2.06,-0.35,33.44,4.64,10.8
2026-05-01 09:06:17,52.431391,-1.458157,120.4,17.39,80.8,17,1.23,-57.1,1.19,1.3,36.57,3.98,12.0
2026-05-01 09:06:18,52.431417,-1.457929,120.3,20.19,80.3,12,1.23,-64.6,0.74,0.5,33.26,1.02,14.2
2026-05-01 09:06:19,52.431537,-1.457745,118.0,17.97,80.0,12,1.31,-61.9,3.41,2.13,39.19,3.55,12.3
2026-05-01 09:06:20,52.43188,-1.457731,121.3,19.35,79.9,16,1.11,-67.1,0.71,-0.93,37.87,1.19,11.7
2026-05-01 09:06:21,52.431966,-1.457645,122.4,18.01,79.8,15,1.31,-64.2,0.07,0.84,40.33,3.59,11.0
2026-05-01 09:06:22,52.431894,-1.457591,117.6,16.0,79.1,13,1.46,-65.4,-0.75,-0.33,36.14,5.83,11.2
2026-05-01 09:06:23,52.431996,-1.457552,119.2,18.76,79.3,16,1.2,-63.3,1.57,0.93,36.05,3.72,11.6
2026-05-01 09:06:24,52.431955,-1.457475,119.4,17.89,79.2,10,1.23,-62.5,2.63,0.1,37.97,3.49,14.1
2026-05-01 09:06:25,52.432203,-1.457216,120.5,19.27,80.4,11,1.15,-60.2,1.98,-3.49,40.08,7.62,12.1
2026-05-01 09:06:26,52.43216,-1.457139,118.6,20.42,79.7,11,1.16,-74.0,3.55,-2.04,39.19,3.68,11.7
2026-05-01 09:06:27,52.432184,-1.457113,119.0,15.17,79.8,14,1.17,-53.8,3.81,0.99,38.71,5.27,13.2
2026-05-01 09:06:28,52.432377,-1.456863,120.9,14.87,80.3,15,1.22,-76.7,2.51,-0.15,40.33,4.36,11.4
2026-05-01 09:06:29,52.432405,-1.456862,118.9,17.03,79.8,12,1.21,-66.5,4.04,-0.8,38.47,4.05,12.7
2026-05-01 09:06:30,52.43254,-1.456514,121.8,17.06,80.1,17,1.25,-71.9,0.44,-0.43,38.48,3.16,9.2
2026-05-01 09:06:31,52.432599,-1.45647,120.9,16.73,80.6,14,1.45,-64.4,1.64,0.23,38.7,1.82,11.7
2026-05-01 09:06:32,52.43272,-1.456387,119.5,17.47,79.7,13,1.09,-58.8,0.61,-2.22,39.0,5.12,11.4
2026-05-01 09:06:33,52.432781,-1.456438,120.9,14.44,79.5,15,1.35,-63.8,3.35,1.0,38.75,2.87,12.4
2026-05-01 09:06:34,52.43304,-1.456232,119.8,18.7,79.6,13,1.38,-66.1,2.56,1.33,39.12,2.66,11.9
2026-05-01 09:06:35,52.43301,-1.456157,121.0,18.32,80.1,16,1.12,-53.5,2.45,0.28,39.23,2.64,12.6
2026-05-01 09:06:36,52.432986,-1.455983,118.7,18.68,79.3,16,1.34,-64.3,3.72,2.2,39.33,3.7,12.9
2026-05-01 09:06:37,52.433155,-1.455936,118.2,17.44,79.1,11,1.11,-56.4,2.92,-1.02,40.97,4.87,12.2
2026-05-01 09:06:38,52.433127,-1.455881,120.2,19.07,79.8,14,1.28,-67.6,1.06,-0.21,38.93,2.58,13.4
2026-05-01 09:06:39,52.433268,-1.455775,116.6,21.01,79.1,16,1.27,-63.1,4.61,-1.23,39.94,2.6,13.4
2026-05-01 09:06:40,52.433252,-1.455544,124.0,18.83,79.4,11,1.18,-63.9,2.95,-1.69,36.28,5.06,11.6
2026-05-01 09:06:41,52.433333,-1.455575,122.2,17.33,80.4,14,0.8,-64.7,1.33,-0.03,40.04,3.61,12.3
2026-05-01 09:06:42,52.433533,-1.455208,125.3,16.24,79.6,13,1.28,-65.3,-1.64,0.96,40.14,2.31,12.3
2026-05-01 09:06:43,52.433461,-1.455308,118.3,15.42,78.5,16,1.14,-67.9,2.11,-1.16,38.45,5.38,14.6
2026-05-01 09:06:44,52.4337,-1.455084,123.4,18.27,79.5,15,1.02,-65.5,3.39,-0.56,41.26,4.52,12.4
2026-05-01 09:06:45,52.433731,-1.454977,120.4,18.76,79.1,13,1.07,-59.2,3.18,-1.27,39.93,4.03,11.2
2026-05-01 09:06:46,52.433857,-1.454826,118.0,19.2,79.1,13,1.06,-68.8,2.67,0.59,40.67,3.4,13.5
2026-05-01 09:06:47,52.434008,-1.454684,118.5,18.42,79.7,16,0.94,-63.8,0.59,-0.39,41.41,1.59,11.9
2026-05-01 09:06:48,52.43412,-1.454782,119.3,16.17,79.6,13,1.3,-63.7,1.27,-2.01,41.25,2.76,13.3
2026-05-01 09:06:49,52.434144,-1.454457,120.6,16.87,79.4,10,1.42,-57.7,2.22,-0.74,44.4,3.04,12.1
2026-05-01 09:06:50,52.434099,-1.454568,115.0,17.18,78.6,11,1.21,-62.6,-2.27,0.57,40.85,3.31,12.0
2026-05-01 09:06:51,52.434333,-1.454253,122.3,18.9,79.3,15,1.06,-60.9,1.8,0.25,40.06,4.75,10.4
2026-05-01 09:06:52,52.4345,-1.454116,121.7,16.8,78.5,15,0.95,-72.0,0.57,1.54,43.85,5.23,10.4
2026-05-01 09:06:53,52.434468,-1.454225,120.7,16.98,78.9,14,1.35,-71.5,3.79,-1.4,42.98,3.43,11.3
2026-05-01 09:06:54,52.434331,-1.453992,120.3,17.81,78.9,14,1.06,-66.5,0.78,0.65,42.04,1.92,12.5
2026-05-01 09:06:55,52.434478,-1.453773,121.5,16.56,79.6,15,1.03,-60.3,0.76,-2.8,40.38,2.98,12.2
2026-05-01 09:06:56,52.43472,-1.453775,124.0,19.29,79.2,10,0.84,-62.6,3.28,1.15,41.42,6.0,12.3
2026-05-01 09:06:57,52.434739,-1.453611,119.0,19.27,78.3,16,1.53,-62.8,2.3,-0.53,39.19,3.28,11.1
2026-05-01 09:06:58,52.435082,-1.453296,119.0,18.47,78.0,13,1.06,-64.9,1.63,1.15,39.79,4.06,12.6
2026-05-01 09:06:59,52.434888,-1.45361,120.9,17.83,78.5,13,1.18,-66.1,4.08,1.71,42.16,4.58,13.0
2026-05-01 09:07:00,52.434997,-1.453372,119.9,17.2,78.8,13,1.2,-70.4,3.33,-0.81,41.98,4.76,11.2
2026-05-01 09:07:01,52.435158,-1.453034,120.7,17.45,79.3,17,1.23,-66.9,1.13,-1.17,42.05,5.79,11.4
2026-05-01 09:07:02,52.434948,-1.453255,123.8,16.95,78.8,14,1.25,-62.5,0.45,-0.26,42.54,3.54,11.6
2026-05-01 09:07:03,52.435358,-1.452921,119.9,15.06,78.4,15,1.08,-67.5,4.02,2.34,43.7,2.25,10.7
2026-05-01 09:07:04,52.435328,-1.452809,117.8,17.47,78.4,13,1.26,-57.6,1.79,-1.81,41.81,2.32,10.7
2026-05-01 09:07:05,52.435295,-1.452529,117.7,20.18,78.1,16,1.72,-65.5,2.18,2.09,41.95,2.86,12.9
2026-05-01 09:07:06,52.435479,-1.452649,121.2,19.17,79.4,13,0.92,-74.2,0.23,1.77,41.92,3.79,11.2
2026-05-01 09:07:07,52.43572,-1.452455,118.9,15.91,78.7,13,1.29,-59.6,3.02,-0.82,41.41,4.13,12.7
2026-05-01 09:07:08,52.435715,-1.452278,122.1,17.23,78.8,15,1.24,-66.2,1.6,0.9,43.37,2.32,12.3
2026-05-01 09:07:09,52.435496,-1.452505,122.7,20.81,78.4,15,1.49,-64.6,3.16,2.12,38.54,3.33,12.1
2026-05-01 09:07:10,52.435899,-1.452135,120.3,21.89,78.5,14,1.62,-66.5,3.07,0.68,41.94,7.07,14.6
2026-05-01 09:07:11,52.435906,-1.451969,117.8,18.38,78.3,16,0.86,-64.7,0.57,-0.18,45.06,4.57,11.8
2026-05-01 09:07:12,52.436041,-1.451948,119.5,18.53,78.8,10,1.21,-65.0,0.61,2.37,42.58,1.78,14.2
2026-05-01 09:07:13,52.435976,-1.451946,124.1,18.68,77.4,11,1.16,-66.0,2.87,-0.55,44.28,2.83,12.5
2026-05-01 09:07:14,52.436287,-1.451631,120.1,18.83,77.7,17,1.22,-70.8,3.4,-0.09,45.22,6.46,10.8
2026-05-01 09:07:15,52.436369,-1.451641,119.5,16.89,78.7,15,1.4,-72.1,3.12,-0.38,38.94,2.92,10.5
2026-05-01 09:07:16,52.436368,-1.451493,122.6,18.37,78.1,11,1.22,-64.9,2.68,0.44,44.11,0.85,13.2
2026-05-01 09:07:17,52.436438,-1.451502,118.3,19.79,78.7,12,1.04,-67.7,0.83,2.1,42.94,2.7,12.3
2026-05-01 09:07:18,52.436634,-1.451478,120.1,19.16,77.0,12,1.2,-55.6,0.47,1.26,43.6,0.52,13.0
2026-05-01 09:07:19,52.436653,-1.451157,118.4,18.03,77.4,12,1.06,-63.6,4.02,0.67,42.08,5.73,12.8
2026-05-01 09:07:20,52.436661,-1.450956,121.1,16.22,77.4,17,1.11,-64.0,2.2,0.17,46.39,3.81,11.9
2026-05-01 09:07:21,52.436753,-1.451117,120.3,18.14,77.9,14,1.08,-63.5,1.91,-0.84,43.27,3.92,11.3
2026-05-01 09:07:22,52.436901,-1.450934,119.4,19.9,78.0,15,1.29,-57.3,1.14,-1.27,40.48,5.46,10.2
2026-05-01 09:07:23,52.437122,-1.450803,119.8,17.94,77.9,12,1.06,-66.3,0.46,0.28,42.89,3.95,11.6
2026-05-01 09:07:24,52.436974,-1.450828,118.1,16.92,77.5,15,1.17,-67.2,0.32,3.5,42.74,3.66,11.6
2026-05-01 09:07:25,52.437061,-1.450543,123.0,14.36,78.3,13,1.25,-61.1,2.0,2.27,45.57,5.64,11.7
2026-05-01 09:07:26,52.437268,-1.450259,122.2,18.41,78.1,10,1.17,-64.0,5.67,1.58,45.33,2.14,10.6
2026-05-01 09:07:27,52.437219,-1.450302,119.5,19.55,77.5,14,1.45,-63.8,2.77,-2.31,44.03,3.53,12.4
2026-05-01 09:07:28,52.437262,-1.450318,119.5,17.62,76.3,11,1.24,-70.2,3.64,0.37,46.51,3.99,11.1
2026-05-01 09:07:29,52.437333,-1.450035,116.5,19.83,77.6,15,1.38,-59.6,4.35,-1.71,44.99,2.02,11.8
2026-05-01 09:07:30,52.437667,-1.449947,122.0,17.0,77.3,15,1.15,-58.2,0.36,1.45,45.81,6.81,10.7
2026-05-01 09:07:31,52.437519,-1.44984,122.0,17.48,76.8,16,1.36,-69.0,1.42,-1.8,43.28,6.15,11.4
2026-05-01 09:07:32,52.437665,-1.449757,119.8,19.74,77.3,13,1.03,-61.0,0.06,-0.52,42.95,4.12,12.7
2026-05-01 09:07:33,52.437623,-1.449718,119.1,18.98,77.0,17,1.12,-70.2,4.42,-1.7,44.71,4.52,10.8
2026-05-01 09:07:34,52.437847,-1.449623,117.3,19.49,78.2,10,1.15,-60.6,-0.4,-1.05,45.7,4.34,13.7
2026-05-01 09:07:35,52.437898,-1.449294,120.2,17.78,76.9,12,1.37,-55.8,1.26,-0.45,45.0,0.0,12.4
2026-05-01 09:07:36,52.438004,-1.449232,121.9,13.78,77.9,17,1.19,-64.6,-0.11,1.16,47.31,7.94,12.1
2026-05-01 09:07:37,52.438063,-1.449283,121.7,18.71,77.6,13,1.0,-65.5,1.9,1.45,48.09,1.77,11.6
2026-05-01 09:07:38,52.438192,-1.449113,117.5,18.71,77.3,17,1.22,-64.6,2.48,-2.7,45.22,3.11,11.7
2026-05-01 09:07:39,52.438253,-1.449251,116.3,18.35,77.3,13,1.26,-61.6,1.78,-1.33,44.85,5.54,12.5
2026-05-01 09:07:40,52.438334,-1.448868,122.8,21.07,77.8,15,1.12,-60.4,1.92,-0.51,45.04,2.55,12.6
2026-05-01 09:07:41,52.438369,-1.448693,118.9,15.71,77.5,11,1.22,-59.2,1.56,0.03,44.23,2.5,11.1
2026-05-01 09:07:42,52.438454,-1.448668,121.6,18.03,77.3,17,1.33,-68.7,0.95,-1.22,44.47,2.6,12.5
2026-05-01 09:07:43,52.43869,-1.448384,122.3,17.29,78.4,12,1.03,-64.9,2.52,-1.52,48.13,4.28,12.9
2026-05-01 09:07:44,52.438676,-1.448597,120.8,19.06,77.3,12,1.2,-69.5,2.02,-1.53,46.85,5.2,12.6
2026-05-01 09:07:45,52.438891,-1.4483,119.7,20.29,77.3,17,1.26,-58.2,3.01,-0.27,48.18,5.26,12.3
2026-05-01 09:07:46,52.438813,-1.448368,121.2,17.75,76.4,16,1.19,-66.5,4.35,0.23,46.15,7.0,11.7
2026-05-01 09:07:47,52.438882,-1.448009,119.2,17.71,76.2,13,1.15,-63.7,-0.24,-3.65,45.74,3.16,10.9
2026-05-01 09:07:48,52.439128,-1.448078,119.1,17.87,76.8,15,0.98,-53.0,2.08,-0.03,48.6,2.19,14.3
2026-05-01 09:07:49,52.439091,-1.447812,122.2,15.17,76.4,17,1.0,-62.3,-0.58,-0.12,50.25,2.28,11.5
2026-05-01 09:07:50,52.43916,-1.447843,120.5,18.8,76.7,14,1.25,-60.4,0.92,-1.13,44.77,3.97,11.3
2026-05-01 09:07:51,52.439237,-1.447799,121.3,16.24,76.1,13,1.45,-65.8,2.3,0.86,51.43,3.95,13.7
2026-05-01 09:07:52,52.439495,-1.447471,117.4,18.55,76.5,10,1.12,-70.3,4.45,-0.56,46.79,4.64,12.4
2026-05-01 09:07:53,52.439444,-1.447431,121.9,15.05,75.8,15,1.3,-65.5,1.64,-0.44,48.24,5.07,14.4
2026-05-01 09:07:54,52.439587,-1.447331,122.1,17.32,76.5,16,1.08,-68.1,1.69,1.25,51.47,2.63,13.6
2026-05-01 09:07:55,52.439715,-1.447086,119.4,18.4,76.5,17,1.37,-64.2,4.21,-1.07,51.78,4.81,10.4
2026-05-01 09:07:56,52.439732,-1.447091,122.3,14.84,77.3,14,1.11,-64.4,5.88,0.1,47.94,2.79,12.2
2026-05-01 09:07:57,52.439667,-1.44691,120.8,18.5,76.7,17,1.31,-69.0,0.37,1.34,48.89,5.1,11.6
2026-05-01 09:07:58,52.439894,-1.447098,116.8,17.8,77.0,14,1.22,-69.0,2.17,0.15,49.21,1.54,12.0
2026-05-01 09:07:59,52.440069,-1.446705,119.4,17.94,76.2,14,1.34,-68.1,0.02,0.02,48.52,2.06,12.7
2026-05-01 09:08:00,52.44011,-1.446647,121.0,18.28,77.0,12,1.04,-65.2,1.7,-0.35,48.53,4.7,12.4
2026-05-01 09:08:01,52.440129,-1.446581,122.8,19.62,76.7,10,1.15,-64.5,0.1,0.57,49.23,6.29,12.3
2026-05-01 09:08:02,52.440139,-1.446502,118.0,18.03,75.6,17,1.39,-54.9,1.19,-3.01,45.42,5.15,11.6
2026-05-01 09:08:03,52.440365,-1.44648,123.7,16.85,75.7,13,1.26,-70.1,1.89,0.68,50.28,3.61,12.8
2026-05-01 09:08:04,52.440172,-1.446031,118.4,14.5,76.0,15,0.95,-62.3,0.54,-1.57,50.92,4.48,11.8
2026-05-01 09:08:05,52.440548,-1.446031,122.6,18.49,76.0,13,1.09,-65.5,-0.1,-3.62,49.9,4.06,12.1
2026-05-01 09:08:06,52.440651,-1.446075,121.1,19.08,76.8,10,1.32,-69.1,3.15,0.27,49.81,1.68,10.9
2026-05-01 09:08:07,52.44052,-1.445806,118.6,19.89,76.1,13,1.02,-65.3,4.31,-1.8,49.45,4.72,9.6
2026-05-01 09:08:08,52.4407,-1.445897,119.0,15.75,75.9,11,1.18,-77.6,1.73,2.36,48.18,0.0,12.1
2026-05-01 09:08:09,52.440595,-1.445617,120.4,16.81,76.9,10,1.01,-64.6,2.47,0.54,45.75,5.31,11.7
2026-05-01 09:08:10,52.440851,-1.44548,117.8,16.92,75.9,14,1.01,-62.3,2.84,0.28,47.21,3.4,10.7
2026-05-01 09:08:11,52.44088,-1.445434,121.6,18.16,76.5,14,1.15,-58.3,1.69,-4.32,50.54,2.05,12.8
2026-05-01 09:08:12,52.440892,-1.445329,116.3,20.34,76.5,17,1.53,-65.7,1.16,0.85,47.13,4.94,12.2
2026-05-01 09:08:13,52.441133,-1.445237,123.8,17.78,75.5,17,1.29,-60.6,5.52,-2.04,49.05,4.13,11.8
2026-05-01 09:08:14,52.441354,-1.444977,118.1,17.69,75.7,11,1.33,-77.4,0.1,2.96,49.19,2.96,10.5
2026-05-01 09:08:15,52.441369,-1.445079,124.7,17.58,76.0,13,1.26,-74.3,1.15,1.34,49.26,5.59,11.1
2026-05-01 09:08:16,52.441316,-1.444806,119.1,21.21,74.9,10,1.22,-65.6,3.21,-0.95,54.37,5.21,10.9
2026-05-01 09:08:17,52.441587,-1.444781,118.9,19.03,75.9,14,1.08,-62.0,1.49,0.94,50.49,4.44,13.2
2026-05-01 09:08:18,52.441617,-1.444474,122.5,18.7,76.2,14,1.37,-70.8,2.14,0.02,48.33,3.47,12.7
2026-05-01 09:08:19,52.441812,-1.444621,120.5,20.2,75.7,15,1.34,-60.9,-0.13,0.4,53.77,7.41,11.2
2026-05-01 09:08:20,52.441663,-1.444417,120.2,17.33,75.7,12,1.35,-63.9,-0.65,0.89,48.96,4.53,12.7
2026-05-01 09:08:21,52.44187,-1.444247,118.3,19.87,75.3,17,1.14,-58.1,2.38,-1.02,51.04,3.47,13.0
2026-05-01 09:08:22,52.442049,-1.444172,119.8,18.26,75.8,16,1.31,-59.4,0.98,-2.18,50.19,4.16,11.5
2026-05-01 09:08:23,52.441751,-1.44413,123.0,20.43,75.7,17,1.41,-61.5,1.73,0.97,52.18,4.24,13.0
2026-05-01 09:08:24,52.4421,-1.443885,119.8,19.08,75.9,14,1.17,-65.6,3.03,-2.1,49.73,4.38,12.3
2026-05-01 09:08:25,52.442,-1.44396,122.9,19.49,75.2,16,1.04,-63.5,2.75,0.46,53.45,5.29,11.7
2026-05-01 09:08:26,52.442129,-1.443639,121.4,18.7,75.4,10,1.07,-58.0,2.91,1.12,52.98,2.8,11.7
2026-05-01 09:08:27,52.442282,-1.44351,120.2,15.59,74.6,14,0.94,-57.0,4.37,2.37,52.47,2.84,11.8
2026-05-01 09:08:28,52.442392,-1.443437,117.4,19.84,76.1,16,1.11,-56.2,0.74,-0.62,49.19,5.18,14.7
2026-05-01 09:08:29,52.442614,-1.443542,119.4,18.07,74.2,17,1.14,-73.7,2.86,0.37,49.67,4.13,11.2
2026-05-01 09:08:30,52.442545,-1.443347,120.0,16.19,75.5,13,1.27,-77.9,-0.06,2.66,46.39,3.8,10.9
2026-05-01 09:08:31,52.442608,-1.443237,118.7,21.08,75.1,15,1.25,-69.8,1.84,2.1,54.32,3.98,12.0
2026-05-01 09:08:32,52.442627,-1.443045,120.0,18.04,75.2,13,1.4,-62.5,2.18,0.65,50.89,3.39,12.2
2026-05-01 09:08:33,52.442669,-1.442987,120.5,17.89,74.8,14,1.21,-55.9,2.33,-1.06,49.63,4.1,12.9
2026-05-01 09:08:34,52.442743,-1.44289,120.1,17.24,74.7,17,1.06,-71.7,2.18,0.29,52.02,2.46,10.6
2026-05-01 09:08:35,52.443027,-1.442708,119.9,17.72,74.2,17,1.08,-66.0,2.49,-0.45,50.66,3.92,10.9
2026-05-01 09:08:36,52.442938,-1.442578,117.6,15.38,74.7,16,0.89,-67.0,4.13,0.98,52.09,6.06,12.0
2026-05-01 09:08:37,52.443271,-1.442416,124.2,19.18,74.5,17,1.39,-60.7,1.9,0.54,50.36,5.47,10.8
2026-05-01 09:08:38,52.443256,-1.442493,120.2,16.93,75.0,11,1.16,-61.9,0.64,0.13,52.74,4.86,12.1
2026-05-01 09:08:39,52.443404,-1.442329,120.7,18.46,74.5,17,0.88,-70.1,2.8,-0.06,52.34,4.0,11.4
2026-05-01 09:08:40,52.443341,-1.442145,121.9,17.42,75.0,16,1.28,-60.4,0.03,3.86,49.91,6.43,9.5
2026-05-01 09:08:41,52.443593,-1.441932,120.8,19.29,73.9,11,1.24,-64.9,-0.88,1.57,54.16,4.2,9.7
2026-05-01 09:08:42,52.443491,-1.441908,120.1,18.46,74.5,11,1.04,-67.7,-0.08,0.06,51.68,4.48,12.0
2026-05-01 09:08:43,52.443609,-1.441895,120.8,18.18,75.0,11,1.28,-67.4,3.09,-0.23,50.64,5.72,11.8
2026-05-01 09:08:44,52.443547,-1.441849,117.9,19.82,74.7,15,1.16,-76.6,0.54,1.78,50.8,3.45,12.9
2026-05-01 09:08:45,52.443638,-1.44151,123.1,17.5,73.9,15,1.18,-58.8,2.19,-0.41,54.19,5.06,13.1
2026-05-01 09:08:46,52.443795,-1.441524,120.0,19.25,74.3,16,1.18,-60.8,0.97,1.38,54.46,1.3,11.2
2026-05-01 09:08:47,52.443985,-1.44138,118.4,16.37,74.4,10,1.31,-67.2,4.78,-2.02,54.06,6.61,12.5
2026-05-01 09:08:48,52.444063,-1.441163,120.0,16.9,75.2,11,1.2,-73.2,1.03,1.22,53.76,3.0,11.8
2026-05-01 09:08:49,52.444185,-1.441201,120.6,18.33,74.7,12,1.27,-56.6,3.14,1.25,52.13,7.11,13.3
2026-05-01 09:08:50,52.444218,-1.441118,121.1,19.56,74.4,10,1.09,-62.4,0.09,-0.31,51.5,4.29,12.4
2026-05-01 09:08:51,52.444113,-1.441013,122.3,18.7,73.6,17,1.08,-66.1,1.93,1.43,52.54,5.14,12.1
2026-05-01 09:08:52,52.444305,-1.440788,119.2,16.04,74.3,15,1.22,-56.9,0.48,1.9,54.81,3.58,9.7
2026-05-01 09:08:53,52.444397,-1.440627,118.4,18.43,74.1,15,1.28,-53.6,2.84,2.57,53.24,4.72,13.1
2026-05-01 09:08:54,52.444572,-1.440735,119.9,17.19,74.7,11,1.16,-60.7,3.94,0.3,51.25,2.88,12.6
2026-05-01 09:08:55,52.44469,-1.440515,117.8,19.22,73.9,15,1.07,-55.0,-0.18,-1.56,52.67,3.33,12.4
2026-05-01 09:08:56,52.444619,-1.440494,120.1,20.11,74.4,14,1.23,-65.3,1.08,0.84,55.36,5.04,12.7
2026-05-01 09:08:57,52.444627,-1.440411,122.8,18.3,74.0,17,1.19,-55.1,2.26,-0.43,51.04,2.74,12.3
2026-05-01 09:08:58,52.444904,-1.44016,121.9,17.07,74.8,13,0.93,-68.8,0.69,-1.84,52.44,4.86,11.2
2026-05-01 09:08:59,52.445079,-1.440003,118.6,17.77,73.6,12,1.36,-75.6,1.04,0.71,52.97,3.93,14.0
2026-05-01 09:09:00,52.445164,-1.439803,121.0,18.84,74.0,14,1.07,-67.0,0.6,-1.44,57.77,6.52,11.7
2026-05-01 09:09:01,52.445075,-1.439778,119.1,16.85,73.9,15,1.39,-72.1,2.39,-1.89,57.82,4.71,13.2
2026-05-01 09:09:02,52.445173,-1.439678,121.0,18.51,74.8,14,1.11,-67.1,0.7,0.68,52.62,0.56,13.6
2026-05-01 09:09:03,52.445214,-1.439582,118.9,18.02,73.8,16,1.15,-66.2,3.32,-0.48,53.19,5.21,12.6
2026-05-01 09:09:04,52.445484,-1.439536,120.3,16.91,73.2,11,0.99,-66.7,0.99,-3.15,53.8,2.22,11.1
2026-05-01 09:09:05,52.445427,-1.439419,120.5,20.19,73.4,10,1.24,-65.5,1.56,1.02,56.46,4.94,12.5
2026-05-01 09:09:06,52.445596,-1.439328,119.4,18.51,73.7,16,1.23,-65.0,2.81,-2.15,53.07,1.06,12.2
2026-05-01 09:09:07,52.445612,-1.439116,118.4,19.97,73.7,10,1.14,-63.4,2.26,-2.34,55.0,3.33,11.9
2026-05-01 09:09:08,52.445785,-1.439176,122.6,17.39,74.0,16,0.95,-58.1,1.37,-1.16,55.68,4.87,12.2
2026-05-01 09:09:09,52.445943,-1.43886,119.3,19.79,72.9,13,1.11,-67.0,5.44,-1.29,56.96,3.08,11.2
2026-05-01 09:09:10,52.445843,-1.438826,118.6,17.94,73.2,14,1.28,-61.9,3.08,1.43,57.99,3.91,11.8
2026-05-01 09:09:11,52.445968,-1.438808,118.4,16.39,73.4,12,1.24,-63.3,2.3,-1.03,52.01,4.51,12.4
2026-05-01 09:09:12,52.446023,-1.438657,118.5,16.86,74.0,14,1.45,-58.3,0.99,0.53,56.7,6.79,12.9
2026-05-01 09:09:13,52.446093,-1.438529,119.6,21.11,72.9,17,1.29,-59.7,1.79,1.09,54.86,2.78,12.3
2026-05-01 09:09:14,52.446123,-1.438333,119.6,15.75,73.3,10,1.1,-65.5,2.34,-0.09,52.03,6.15,12.0
2026-05-01 09:09:15,52.446151,-1.438473,119.6,18.65,73.8,13,1.51,-68.7,2.16,-0.21,58.19,1.53,10.6
2026-05-01 09:09:16,52.446109,-1.438225,122.8,20.03,73.4,10,1.16,-69.2,2.08,-1.55,53.91,2.84,12.8
2026-05-01 09:09:17,52.446443,-1.438049,120.7,19.19,73.7,14,1.36,-59.8,1.27,-1.52,57.58,2.74,11.5
2026-05-01 09:09:18,52.446511,-1.437976,117.8,18.74,74.0,10,0.97,-70.6,1.5,0.14,53.28,5.02,13.2
2026-05-01 09:09:19,52.446688,-1.437823,121.7,16.73,73.5,11,1.21,-70.9,-0.74,-0.02,54.8,6.8,13.7
2026-05-01 09:09:20,52.446662,-1.437726,119.8,16.54,71.8,13,1.15,-62.4,-0.11,2.65,53.42,2.4,10.9
2026-05-01 09:09:21,52.4466,-1.437575,117.3,17.24,72.7,16,1.08,-63.7,1.74,0.77,58.12,2.71,11.6
2026-05-01 09:09:22,52.446926,-1.437524,122.4,19.05,73.2,17,1.3,-69.4,1.44,-1.13,55.73,2.12,11.3
2026-05-01 09:09:23,52.447178,-1.43752,122.6,17.8,72.3,13,1.2,-65.8,3.6,-0.28,53.9,6.1,11.7
2026-05-01 09:09:24,52.446984,-1.437452,119.7,18.5,72.6,13,1.34,-69.4,1.8,1.78,55.55,3.41,12.3
2026-05-01 09:09:25,52.447189,-1.437306,119.5,18.15,73.0,12,1.34,-59.0,-0.26,-1.74,58.57,3.46,12.9
2026-05-01 09:09:26,52.447304,-1.437192,122.3,15.44,73.4,11,1.19,-60.5,2.45,-0.18,60.55,4.88,11.8
2026-05-01 09:09:27,52.447168,-1.437018,123.9,17.97,72.6,12,1.22,-62.8,3.55,-3.28,55.74,1.09,12.5
2026-05-01 09:09:28,52.447264,-1.436872,118.6,16.69,73.5,14,1.45,-64.2,-0.21,-0.23,54.23,2.58,10.2
2026-05-01 09:09:29,52.447496,-1.436788,116.1,18.24,73.2,11,1.26,-63.9,4.88,1.98,57.01,4.43,10.3
2026-05-01 09:09:30,52.447456,-1.436732,124.2,15.32,72.8,12,1.27,-61.9,4.18,-0.42,55.05,3.15,11.6
2026-05-01 09:09:31,52.447469,-1.436486,121.2,18.08,73.1,12,1.27,-63.0,-0.45,-0.65,58.61,4.47,11.8
2026-05-01 09:09:32,52.447722,-1.436328,123.5,18.25,72.6,13,1.31,-63.1,2.49,0.45,53.47,2.43,11.7
2026-05-01 09:09:33,52.448003,-1.436298,118.3,17.38,72.6,10,1.27,-61.2,3.54,2.33,61.53,4.57,11.8
2026-05-01 09:09:34,52.447701,-1.436182,120.0,17.32,72.9,15,1.47,-61.3,1.55,0.48,58.38,0.96,11.7
2026-05-01 09:09:35,52.447854,-1.436144,119.4,16.56,72.8,17,1.14,-59.2,1.04,1.49,53.86,6.66,12.0
2026-05-01 09:09:36,52.448072,-1.436099,117.4,17.79,72.7,15,1.05,-67.7,1.66,4.62,54.74,5.0,13.7
2026-05-01 09:09:37,52.448046,-1.435726,116.3,16.53,73.5,11,1.1,-62.7,2.52,-0.79,58.41,7.04,12.4
2026-05-01 09:09:38,52.448147,-1.435915,116.7,17.77,72.5,10,1.16,-65.3,2.36,0.6,54.99,3.47,11.7
2026-05-01 09:09:39,52.448249,-1.43551,118.4,18.66,72.5,16,1.32,-64.5,0.91,0.74,58.44,3.6,11.2
2026-05-01 09:09:40,52.448315,-1.435505,120.2,17.43,72.4,15,1.28,-50.9,2.69,1.09,54.31,3.31,12.5
2026-05-01 09:09:41,52.448415,-1.435447,121.1,19.87,72.0,16,1.19,-64.8,-1.86,1.16,58.72,2.42,13.4
2026-05-01 09:09:42,52.448463,-1.435248,118.4,16.0,72.0,15,1.19,-63.6,0.22,3.12,62.1,2.44,12.8
2026-05-01 09:09:43,52.448688,-1.435334,119.3,16.65,72.8,16,1.13,-69.5,1.48,-1.22,57.88,7.94,13.2
2026-05-01 09:09:44,52.448649,-1.434916,123.0,20.06,72.8,16,1.17,-59.6,3.3,1.53,58.64,3.89,12.5
2026-05-01 09:09:45,52.448706,-1.435157,119.2,20.15,72.1,16,1.31,-63.3,1.82,-2.04,57.9,4.5,10.3
2026-05-01 09:09:46,52.448878,-1.43501,123.0,16.66,71.4,13,1.17,-65.5,3.14,-1.31,58.31,4.73,10.8
2026-05-01 09:09:47,52.449012,-1.43462,118.5,19.32,72.0,16,1.07,-68.4,2.62,1.49,62.2,4.12,12.2
2026-05-01 09:09:48,52.449059,-1.434476,117.7,18.76,72.0,11,1.04,-65.2,3.27,1.24,62.08,4.05,11.1
2026-05-01 09:09:49,52.449158,-1.434478,119.3,17.53,72.3,16,1.33,-61.7,1.59,0.31,55.74,1.96,11.7
2026-05-01 09:09:50,52.449318,-1.434499,118.7,17.11,72.9,13,1.29,-71.6,0.39,-1.08,57.81,4.26,13.1
2026-05-01 09:09:51,52.449071,-1.434181,117.4,20.54,73.1,16,1.04,-69.0,2.07,-0.41,58.33,5.2,11.6
2026-05-01 09:09:52,52.449237,-1.43415,120.5,17.14,72.3,13,1.22,-67.8,0.81,0.72,54.52,2.85,10.3
2026-05-01 09:09:53,52.449346,-1.43398,122.9,15.78,71.7,16,1.24,-61.5,2.88,0.13,60.69,5.28,13.3
2026-05-01 09:09:54,52.449398,-1.434045,118.7,17.92,71.1,15,1.21,-68.8,-0.03,2.04,55.52,3.94,13.4
2026-05-01 09:09:55,52.449621,-1.433792,119.4,18.31,71.8,13,1.14,-73.4,1.52,0.9,60.0,2.5,12.9
2026-05-01 09:09:56,52.449697,-1.433844,116.0,16.19,71.5,12,1.4,-58.8,2.59,-0.74,58.65,3.84,10.8
2026-05-01 09:09:57,52.449893,-1.433556,118.6,18.05,72.4,17,1.07,-71.6,3.34,2.17,58.44,4.93,10.3
2026-05-01 09:09:58,52.449843,-1.433483,122.2,18.48,71.6,12,1.34,-64.3,0.64,-0.69,60.85,3.8,12.0
2026-05-01 09:09:59,52.449823,-1.433419,119.3,19.27,71.4,14,1.24,-68.3,1.39,3.26,60.64,3.12,10.8
2026-05-01 09:10:00,52.450175,-1.433267,122.5,18.29,71.5,5,3.66,-62.0,1.1,-0.48,64.29,2.95,11.1
2026-05-01 09:10:01,52.450235,-1.433039,122.0,19.58,70.6,5,3.54,-59.9,0.19,-0.31,59.83,1.32,13.3
2026-05-01 09:10:02,52.450224,-1.433066,119.6,18.18,71.9,6,4.47,-64.0,-0.74,0.26,57.78,3.72,10.9
2026-05-01 09:10:03,52.450465,-1.433029,118.3,20.67,71.2,4,3.89,-52.3,0.52,1.9,62.56,2.87,10.9
2026-05-01 09:10:04,52.450654,-1.43304,119.0,18.14,71.3,6,4.21,-61.2,-0.07,0.84,60.42,5.62,13.1
2026-05-01 09:10:05,52.450388,-1.432897,120.8,17.64,71.7,5,4.31,-71.2,4.06,0.16,63.6,4.74,13.9
2026-05-01 09:10:06,52.450469,-1.432727,121.1,18.57,71.2,5,4.46,-69.7,-0.48,-0.98,60.9,3.0,11.2
2026-05-01 09:10:07,52.4507,-1.432596,120.1,20.22,70.7,5,4.12,-69.4,1.06,0.57,60.91,3.45,13.8
2026-05-01 09:10:08,52.450666,-1.432388,124.6,18.28,71.2,4,4.21,-60.1,2.19,-0.78,63.93,4.5,12.2
2026-05-01 09:10:09,52.450866,-1.432275,115.8,19.17,71.3,5,4.79,-62.1,1.89,-1.82,62.19,2.11,11.7
2026-05-01 09:10:10,52.450946,-1.432203,119.2,17.23,71.3,5,3.87,-66.3,2.94,-1.48,60.0,0.82,11.8
2026-05-01 09:10:11,52.450895,-1.431936,123.9,19.62,71.4,5,4.77,-70.4,0.24,-2.09,60.76,3.17,12.9
2026-05-01 09:10:12,52.451141,-1.432184,119.0,20.69,70.5,6,4.03,-68.5,-1.29,-0.39,60.94,1.01,11.8
