timestamp,latitude,longitude,altitude_m,speed_ms,battery_pct,gps_satellites,hdop,signal_dbm,pitch_deg,roll_deg,yaw_deg,wind_speed_ms,temperature_c
2026-05-01 09:00:00,52.40005,-1.499922,116.2,16.56,94.4,16,1.04,-60.6,2.74,-1.74,359.97,2.73,10.0
2026-05-01 09:00:01,52.400086,-1.499922,118.3,15.97,94.6,15,1.33,-66.6,2.49,2.11,359.58,3.67,12.5
2026-05-01 09:00:02,52.400265,-1.499815,119.2,15.62,94.4,14,1.18,-58.7,1.91,-1.23,357.26,3.0,12.5
2026-05-01 09:00:03,52.400453,-1.4996,123.8,18.62,94.6,17,1.13,-59.3,2.25,4.45,359.56,5.94,11.4
2026-05-01 09:00:04,52.400377,-1.499483,121.1,17.68,94.7,14,1.21,-64.5,1.1,2.2,0.28,4.27,12.1
2026-05-01 09:00:05,52.400477,-1.499378,117.3,18.57,95.2,12,1.6,-67.3,2.92,-1.19,359.34,6.77,9.5
2026-05-01 09:00:06,52.400758,-1.49913,121.0,19.04,94.6,11,1.37,-69.9,0.04,0.03,2.09,4.61,12.7
2026-05-01 09:00:07,52.400777,-1.498971,116.9,18.4,93.9,15,1.37,-65.2,2.28,1.13,2.68,0.38,12.2
2026-05-01 09:00:08,52.400754,-1.498924,122.2,18.99,95.2,17,1.27,-62.2,2.84,1.18,0.8,5.58,12.0
2026-05-01 09:00:09,52.400955,-1.498651,119.1,17.9,94.2,15,1.22,-66.6,1.7,0.66,1.54,1.74,12.0
2026-05-01 09:00:10,52.400954,-1.49878,119.8,16.22,94.5,13,0.84,-76.0,2.56,1.88,356.88,4.35,12.5
2026-05-01 09:00:11,52.401054,-1.498552,122.7,19.59,94.7,10,1.1,-58.7,0.51,-0.18,0.48,2.84,12.0
2026-05-01 09:00:12,52.401225,-1.498471,117.4,17.12,94.5,14,1.13,-64.0,0.55,-0.55,3.45,7.21,10.1
2026-05-01 09:00:13,52.40111,-1.498452,117.2,16.6,94.9,15,0.92,-66.9,2.36,-0.52,0.71,6.16,14.2
2026-05-01 09:00:14,52.401228,-1.49814,118.8,17.73,94.6,15,1.03,-60.7,3.02,1.29,0.21,2.89,13.2
2026-05-01 09:00:15,52.401445,-1.498011,122.1,16.63,93.9,16,0.9,-57.4,-0.81,0.55,6.36,3.81,10.7
2026-05-01 09:00:16,52.4015,-1.497714,117.0,17.37,95.3,16,1.19,-79.0,2.78,0.44,5.56,4.37,11.7
2026-05-01 09:00:17,52.401733,-1.497669,114.3,18.52,94.3,15,1.32,-62.8,1.19,1.19,2.98,5.3,11.8
2026-05-01 09:00:18,52.40171,-1.497701,119.1,18.52,94.1,11,1.37,-72.1,1.71,-3.08,4.44,4.04,13.1
2026-05-01 09:00:19,52.40176,-1.49728,121.1,16.65,94.6,10,1.26,-62.5,-0.01,0.47,357.83,2.46,9.8
2026-05-01 09:00:20,52.402148,-1.497209,122.4,17.27,94.2,15,1.06,-64.4,0.72,0.33,0.83,2.92,11.5
2026-05-01 09:00:21,52.402079,-1.49714,119.1,19.61,94.2,12,0.91,-61.8,3.45,2.5,1.58,3.99,10.2
2026-05-01 09:00:22,52.402208,-1.497087,119.2,18.74,95.2,14,0.94,-67.5,2.05,-2.29,2.17,5.85,11.7
2026-05-01 09:00:23,52.402159,-1.497027,122.3,21.11,93.8,13,1.01,-74.4,1.43,2.34,1.78,4.64,11.5
2026-05-01 09:00:24,52.402347,-1.496835,116.3,19.77,93.7,16,1.07,-67.3,1.83,0.11,357.78,2.84,12.1
2026-05-01 09:00:25,52.402513,-1.496556,119.2,19.72,93.9,12,1.18,-63.0,2.73,0.73,3.77,4.97,11.4
2026-05-01 09:00:26,52.402487,-1.496343,120.4,15.92,94.3,14,1.05,-59.9,2.66,2.51,4.21,3.42,11.2
2026-05-01 09:00:27,52.402739,-1.496243,120.9,19.15,93.0,17,1.25,-70.9,1.89,0.84,6.45,5.34,12.6
2026-05-01 09:00:28,52.402742,-1.496313,119.0,17.92,92.7,16,1.17,-59.9,3.64,0.6,1.79,7.79,12.5
2026-05-01 09:00:29,52.402873,-1.496243,120.1,17.17,93.4,11,1.2,-68.2,3.46,0.36,1.74,3.46,12.6
2026-05-01 09:00:30,52.402942,-1.495983,115.0,18.25,92.8,16,1.37,-63.2,2.62,-0.73,358.24,5.2,11.8
2026-05-01 09:00:31,52.403287,-1.496041,118.7,19.42,93.3,10,1.02,-67.5,2.08,-0.04,3.14,2.88,11.4
2026-05-01 09:00:32,52.403201,-1.495698,120.9,18.75,93.8,10,1.26,-64.1,2.99,-1.07,5.64,3.83,11.9
2026-05-01 09:00:33,52.403196,-1.495612,118.0,16.68,93.0,14,1.2,-60.5,2.47,-0.07,2.74,4.04,12.5
2026-05-01 09:00:34,52.403485,-1.49551,120.1,19.11,92.7,12,1.15,-71.1,3.59,-3.5,8.37,3.71,9.8
2026-05-01 09:00:35,52.40338,-1.49549,120.9,17.04,93.4,13,1.33,-68.4,3.35,0.64,3.69,7.69,12.4
2026-05-01 09:00:36,52.403623,-1.495145,119.3,18.33,93.8,11,1.33,-64.1,0.47,-0.18,4.62,3.54,12.3
2026-05-01 09:00:37,52.403507,-1.495117,120.3,17.54,92.4,14,1.06,-53.0,0.37,-0.5,1.72,4.88,12.1
2026-05-01 09:00:38,52.40367,-1.495047,118.1,17.67,93.6,17,1.17,-69.3,0.95,0.33,5.14,1.1,11.9
2026-05-01 09:00:39,52.403922,-1.495084,119.6,19.15,93.6,11,1.24,-54.8,3.46,-2.15,0.72,4.65,9.4
2026-05-01 09:00:40,52.404077,-1.494666,121.2,16.44,93.6,10,1.16,-55.0,-0.36,2.89,6.19,5.71,11.6
2026-05-01 09:00:41,52.40412,-1.494352,120.3,20.92,93.7,15,1.29,-65.5,2.59,-0.15,6.37,3.21,13.8
2026-05-01 09:00:42,52.404191,-1.49423,118.8,15.27,94.1,15,1.24,-66.5,2.54,-0.22,7.76,0.23,12.0
2026-05-01 09:00:43,52.404273,-1.494309,120.4,17.1,92.8,13,1.47,-68.5,3.74,-1.45,3.12,3.94,11.7
2026-05-01 09:00:44,52.404255,-1.49419,121.4,18.56,93.0,11,0.97,-65.3,2.27,0.04,5.6,4.03,12.0
2026-05-01 09:00:45,52.404431,-1.493949,115.9,18.88,92.7,14,1.18,-72.0,-0.01,2.08,6.53,5.09,12.4
2026-05-01 09:00:46,52.404557,-1.493962,122.3,17.85,92.9,13,1.06,-65.4,0.56,1.55,6.41,7.02,12.7
2026-05-01 09:00:47,52.404809,-1.493699,119.3,17.91,93.6,16,1.29,-57.5,0.23,1.28,3.91,3.43,11.8
2026-05-01 09:00:48,52.404838,-1.493519,120.9,18.62,92.1,16,0.96,-68.1,1.19,0.82,0.98,2.72,12.4
2026-05-01 09:00:49,52.404727,-1.49334,122.4,17.65,92.3,17,1.25,-66.2,1.73,-0.54,6.58,2.25,13.7
2026-05-01 09:00:50,52.405036,-1.493339,117.3,20.09,93.4,12,1.11,-73.5,0.25,-2.18,5.7,4.3,13.0
2026-05-01 09:00:51,52.405065,-1.493216,118.6,19.26,93.1,15,1.09,-63.1,4.21,-0.3,4.99,4.72,14.3
2026-05-01 09:00:52,52.405136,-1.49315,119.4,19.31,92.4,14,0.98,-63.7,0.01,-0.35,7.77,3.18,11.3
2026-05-01 09:00:53,52.405365,-1.493011,118.4,16.55,93.0,11,1.13,-64.7,4.02,1.57,6.27,5.17,13.7
2026-05-01 09:00:54,52.405507,-1.492818,123.5,17.88,92.6,13,1.36,-66.1,3.78,0.46,3.85,4.7,11.2
2026-05-01 09:00:55,52.405597,-1.492625,118.3,17.55,93.2,14,1.2,-66.5,3.35,2.42,2.74,4.06,12.4
2026-05-01 09:00:56,52.40552,-1.492437,118.9,16.49,92.4,13,1.29,-62.5,0.96,1.8,4.47,2.65,12.7
2026-05-01 09:00:57,52.405673,-1.492475,120.4,18.54,92.9,13,1.45,-65.1,2.51,-0.68,11.63,3.28,11.5
2026-05-01 09:00:58,52.405837,-1.492112,117.6,17.19,93.6,13,1.24,-63.4,0.08,-2.69,8.41,0.36,12.1
2026-05-01 09:00:59,52.406001,-1.492155,119.2,18.98,92.5,11,1.12,-63.9,3.37,2.08,7.46,4.35,12.9
2026-05-01 09:01:00,52.405956,-1.491997,120.6,16.39,92.2,14,1.27,-59.4,1.89,2.04,6.84,4.04,11.3
2026-05-01 09:01:01,52.406086,-1.491936,119.3,20.58,92.5,10,1.12,-61.6,1.39,-2.05,6.83,4.28,13.7
2026-05-01 09:01:02,52.406094,-1.49197,119.8,16.66,91.9,10,1.12,-64.0,0.16,2.26,9.78,4.76,10.6
2026-05-01 09:01:03,52.406185,-1.491506,118.9,18.33,93.3,11,0.97,-57.4,-1.72,0.57,6.58,4.58,13.9
2026-05-01 09:01:04,52.406486,-1.491387,117.0,19.19,92.1,16,1.34,-62.9,0.44,0.24,8.84,3.83,13.0
2026-05-01 09:01:05,52.40664,-1.491356,120.6,17.14,91.8,11,1.14,-58.5,3.67,2.42,7.11,4.07,11.9
2026-05-01 09:01:06,52.406597,-1.491187,123.5,19.28,91.5,15,1.23,-62.0,1.4,2.02,11.81,1.89,11.6
2026-05-01 09:01:07,52.406805,-1.491009,120.0,16.16,92.4,13,1.04,-74.2,1.75,0.98,9.53,3.12,11.5
2026-05-01 09:01:08,52.406841,-1.491084,120.5,20.18,92.3,14,1.27,-58.5,2.98,0.71,10.66,4.08,11.9
2026-05-01 09:01:09,52.40684,-1.490847,121.4,18.02,91.5,14,1.09,-64.3,4.71,0.92,7.12,2.9,12.0
2026-05-01 09:01:10,52.407041,-1.490581,117.5,17.11,92.0,12,1.18,-65.3,3.99,-0.6,10.52,5.29,13.3
2026-05-01 09:01:11,52.407259,-1.490652,123.4,17.55,90.9,12,1.33,-63.6,0.54,-0.08,7.9,3.01,14.0
2026-05-01 09:01:12,52.407201,-1.490364,120.4,19.21,91.7,17,1.32,-66.7,-0.91,-1.35,8.87,4.32,12.2
2026-05-01 09:01:13,52.407461,-1.490396,123.3,17.12,91.8,10,1.2,-63.9,5.54,-0.5,12.04,4.17,11.2
2026-05-01 09:01:14,52.407143,-1.49008,118.5,16.88,92.4,12,0.93,-68.0,5.4,-0.55,6.8,5.12,11.5
2026-05-01 09:01:15,52.407587,-1.489997,123.6,17.67,91.1,12,1.65,-58.6,2.28,-0.95,9.41,5.35,11.8
2026-05-01 09:01:16,52.407614,-1.490021,121.6,16.23,90.8,10,1.46,-65.6,0.09,0.21,10.0,5.04,11.0
2026-05-01 09:01:17,52.407675,-1.48961,121.1,20.73,91.0,15,1.31,-66.9,3.44,-0.49,10.29,0.84,10.8
2026-05-01 09:01:18,52.407814,-1.489667,120.5,17.15,90.7,16,1.09,-69.6,1.84,0.75,8.46,5.79,14.1
2026-05-01 09:01:19,52.407707,-1.489541,119.5,19.25,92.0,10,1.18,-63.7,1.83,-2.43,13.66,6.29,12.3
2026-05-01 09:01:20,52.407983,-1.489306,122.4,18.31,92.0,16,1.12,-64.1,3.34,-0.17,7.02,3.28,11.2
2026-05-01 09:01:21,52.408141,-1.489078,120.3,16.52,91.4,17,1.39,-63.1,2.5,0.2,12.64,4.35,12.8
2026-05-01 09:01:22,52.408353,-1.489161,116.1,17.99,91.8,12,1.24,-70.1,0.22,-0.47,12.28,2.66,10.8
2026-05-01 09:01:23,52.408254,-1.48892,117.8,19.18,91.2,14,1.08,-73.0,1.51,-0.26,13.77,1.08,10.9
2026-05-01 09:01:24,52.408325,-1.48875,119.6,17.72,91.0,12,1.13,-61.9,2.99,-2.38,6.91,2.89,11.2
2026-05-01 09:01:25,52.408455,-1.48859,120.6,19.79,90.9,13,1.37,-57.6,2.77,0.53,8.47,3.19,13.7
2026-05-01 09:01:26,52.408697,-1.488508,119.9,19.53,90.8,17,1.44,-70.1,2.39,0.97,13.31,3.47,11.7
2026-05-01 09:01:27,52.408739,-1.488429,122.4,19.38,90.2,16,1.43,-57.1,3.4,0.74,6.69,2.56,9.6
2026-05-01 09:01:28,52.408753,-1.488342,116.1,17.31,91.0,16,1.31,-63.6,1.46,1.56,7.35,2.9,13.2
2026-05-01 09:01:29,52.408957,-1.488117,120.3,16.38,90.8,13,1.16,-65.0,2.27,0.3,9.71,3.98,11.7
2026-05-01 09:01:30,52.409016,-1.488099,116.4,17.08,91.2,13,0.8,-67.0,-3.06,0.72,11.19,2.84,10.2
2026-05-01 09:01:31,52.409203,-1.488151,121.5,18.29,90.8,15,1.24,-71.9,1.33,0.23,14.11,4.82,11.7
2026-05-01 09:01:32,52.409136,-1.487681,119.8,18.82,90.6,11,1.2,-60.1,3.15,1.03,10.68,5.02,12.5
2026-05-01 09:01:33,52.409273,-1.487501,120.8,14.74,90.2,13,1.22,-68.9,1.41,-2.37,9.95,7.57,12.4
2026-05-01 09:01:34,52.409367,-1.487695,118.3,17.99,90.6,16,1.21,-68.9,1.3,-1.34,11.91,5.69,13.8
2026-05-01 09:01:35,52.40936,-1.487426,122.6,18.24,90.9,14,1.0,-60.0,0.44,2.38,12.35,4.36,11.1
2026-05-01 09:01:36,52.409636,-1.48713,122.1,17.58,89.9,16,1.28,-74.4,3.51,-3.69,12.41,3.07,12.0
2026-05-01 09:01:37,52.409733,-1.486852,121.2,19.94,90.5,16,1.29,-72.6,2.82,-0.21,11.29,4.44,11.3
2026-05-01 09:01:38,52.409807,-1.486923,119.7,18.63,90.5,15,1.3,-65.1,3.24,1.76,7.86,4.49,10.5
2026-05-01 09:01:39,52.409883,-1.486864,121.2,19.97,90.0,11,1.34,-63.5,-0.59,-0.14,10.05,3.23,12.9
2026-05-01 09:01:40,52.409865,-1.486676,118.6,17.68,90.0,11,1.29,-62.6,1.76,-0.61,14.85,5.18,12.5
2026-05-01 09:01:41,52.410065,-1.486387,121.7,19.41,90.4,13,1.14,-66.5,1.58,0.19,12.5,1.9,12.3
2026-05-01 09:01:42,52.410173,-1.486456,123.3,20.45,89.7,17,1.19,-52.3,1.58,-0.53,11.6,3.63,12.4
2026-05-01 09:01:43,52.410227,-1.486337,122.1,19.97,90.4,12,1.21,-66.1,1.08,0.05,14.6,4.83,11.3
2026-05-01 09:01:44,52.410391,-1.486172,118.5,16.36,89.7,16,1.22,-66.2,1.48,-1.03,10.23,3.57,11.0
2026-05-01 09:01:45,52.410547,-1.486086,120.7,17.62,90.6,10,1.35,-69.0,3.27,1.66,12.16,3.69,12.0
2026-05-01 09:01:46,52.410796,-1.485845,117.4,17.48,91.2,12,1.3,-64.4,-0.87,2.13,13.0,3.79,13.2
2026-05-01 09:01:47,52.410725,-1.485561,121.1,18.73,89.6,12,1.51,-61.9,4.67,-0.2,11.97,2.75,13.6
2026-05-01 09:01:48,52.410833,-1.485558,120.9,19.03,90.2,11,1.53,-59.0,2.73,-2.08,13.17,5.76,12.8
2026-05-01 09:01:49,52.4109,-1.485482,116.3,16.74,89.5,11,1.21,-72.4,1.94,-0.79,12.71,2.47,12.0
2026-05-01 09:01:50,52.410815,-1.485353,117.7,18.1,90.4,15,0.8,-66.2,3.36,-0.28,10.41,4.48,12.3
2026-05-01 09:01:51,52.411105,-1.485346,119.4,14.97,89.2,15,1.39,-62.8,-0.18,0.76,13.69,4.62,12.0
2026-05-01 09:01:52,52.411213,-1.484968,119.4,20.16,90.0,11,1.12,-62.1,1.0,-1.51,10.79,2.58,11.0
2026-05-01 09:01:53,52.411554,-1.484931,117.6,17.23,89.3,14,1.08,-65.0,1.82,-1.15,13.9,4.11,12.0
2026-05-01 09:01:54,52.411388,-1.484808,120.8,18.08,89.6,14,1.14,-62.3,4.05,0.77,16.44,2.64,10.7
2026-05-01 09:01:55,52.411538,-1.484337,120.5,17.54,89.1,10,1.13,-69.0,1.93,1.41,13.25,6.09,11.9
2026-05-01 09:01:56,52.411604,-1.484493,119.6,19.72,90.0,11,1.29,-57.2,2.68,-0.93,11.59,2.29,13.6
2026-05-01 09:01:57,52.411591,-1.484465,118.5,13.74,89.1,13,0.97,-60.0,1.12,-2.0,13.8,3.02,12.8
2026-05-01 09:01:58,52.411922,-1.484299,122.1,17.98,89.8,15,1.04,-71.7,2.73,4.93,12.51,2.16,11.1
2026-05-01 09:01:59,52.411983,-1.484008,123.3,17.84,89.3,11,1.25,-70.4,4.52,1.17,15.48,1.96,11.9
2026-05-01 09:02:00,52.412087,-1.483978,119.0,17.32,89.3,14,1.29,-70.2,3.49,-0.4,14.11,6.39,11.2
2026-05-01 09:02:01,52.412017,-1.484,118.8,20.59,89.4,11,1.3,-61.6,1.88,1.3,17.95,4.81,11.9
2026-05-01 09:02:02,52.412348,-1.483631,121.0,16.67,88.9,14,1.08,-71.4,3.01,-0.19,16.98,4.21,13.0
2026-05-01 09:02:03,52.412168,-1.483656,119.3,19.16,89.4,11,1.05,-66.7,2.87,1.3,14.46,3.02,12.7
2026-05-01 09:02:04,52.412467,-1.483268,119.7,18.53,90.0,16,1.12,-62.7,2.76,0.24,16.32,5.36,14.5
2026-05-01 09:02:05,52.412727,-1.483214,121.5,19.89,88.8,13,1.24,-65.3,3.67,0.14,14.22,2.76,13.2
2026-05-01 09:02:06,52.412509,-1.483234,116.2,17.0,89.7,17,1.42,-63.7,3.66,-0.17,15.2,5.19,12.2
2026-05-01 09:02:07,52.412652,-1.482927,122.6,16.9,89.8,10,0.89,-70.3,1.81,-2.17,14.53,2.69,12.7
2026-05-01 09:02:08,52.412819,-1.482915,120.1,19.64,88.6,16,1.17,-62.0,2.96,2.91,16.9,3.03,11.8
2026-05-01 09:02:09,52.412858,-1.482703,119.2,18.64,88.2,13,1.0,-68.1,1.43,-1.41,18.36,5.14,10.9
2026-05-01 09:02:10,52.412854,-1.482607,119.8,15.68,89.1,14,0.95,-66.6,0.62,-2.04,17.21,5.3,13.3
2026-05-01 09:02:11,52.413116,-1.482606,119.9,17.19,88.6,15,1.35,-63.8,1.6,-0.32,17.57,4.9,13.0
2026-05-01 09:02:12,52.413103,-1.482453,116.5,18.58,89.8,15,1.28,-64.5,1.89,-1.44,17.7,2.43,11.8
2026-05-01 09:02:13,52.413356,-1.482152,123.0,19.26,88.8,12,1.27,-64.9,-0.49,-0.08,17.07,3.33,12.3
2026-05-01 09:02:14,52.413317,-1.482155,120.1,16.98,88.3,13,1.34,-68.8,3.29,1.03,13.81,4.24,13.2
2026-05-01 09:02:15,52.413664,-1.482028,120.9,13.63,88.1,11,1.13,-66.5,-2.15,1.49,19.61,2.73,12.8
2026-05-01 09:02:16,52.413531,-1.48195,121.9,18.78,89.2,10,1.14,-65.0,6.07,1.22,19.94,6.06,10.5
2026-05-01 09:02:17,52.413677,-1.481679,118.0,16.17,88.3,11,1.53,-71.9,4.25,-0.46,15.98,0.4,12.2
2026-05-01 09:02:18,52.413891,-1.481381,120.9,14.97,88.6,11,1.16,-67.3,1.61,0.07,15.83,2.83,11.8
2026-05-01 09:02:19,52.413786,-1.481561,119.5,13.75,89.0,13,1.31,-63.1,2.01,0.61,17.92,3.24,13.1
2026-05-01 09:02:20,52.414032,-1.481318,121.7,19.22,88.2,17,1.2,-71.4,2.45,-2.64,17.91,0.0,13.0
2026-05-01 09:02:21,52.41424,-1.481046,115.7,18.19,88.4,10,0.92,-59.2,1.12,0.86,16.53,1.91,13.3
2026-05-01 09:02:22,52.414049,-1.481062,119.8,17.66,88.4,12,0.89,-58.7,2.29,-2.19,14.55,4.94,10.9
2026-05-01 09:02:23,52.414328,-1.480875,118.8,20.08,88.7,16,1.11,-71.2,1.78,3.06,17.78,4.05,11.2
2026-05-01 09:02:24,52.414436,-1.480893,120.9,18.96,88.6,11,1.36,-58.2,1.86,-0.61,18.39,6.36,13.1
2026-05-01 09:02:25,52.414588,-1.480611,120.9,20.42,88.1,10,1.32,-65.7,2.27,-0.28,18.86,6.32,11.4
2026-05-01 09:02:26,52.414486,-1.480539,118.6,15.91,88.2,12,1.34,-62.9,0.03,-1.15,18.23,4.65,10.5
2026-05-01 09:02:27,52.414578,-1.480288,118.6,17.95,87.9,16,1.05,-67.5,2.06,-0.94,17.11,4.47,12.5
2026-05-01 09:02:28,52.414862,-1.480135,119.8,15.57,87.3,11,1.44,-60.4,2.25,3.41,19.76,4.1,11.5
2026-05-01 09:02:29,52.41494,-1.479861,118.2,17.66,88.2,10,1.06,-63.0,2.19,1.41,18.02,0.02,13.8
2026-05-01 09:02:30,52.415035,-1.479929,121.7,17.63,88.9,16,1.23,-69.1,1.68,-2.32,17.08,1.91,12.3
2026-05-01 09:02:31,52.415145,-1.479821,119.3,18.94,87.5,13,1.2,-70.8,3.71,2.26,17.77,4.15,12.2
2026-05-01 09:02:32,52.415142,-1.4797,114.2,18.07,87.5,17,1.17,-72.3,1.47,1.79,14.76,4.92,11.6
2026-05-01 09:02:33,52.415333,-1.479622,119.3,18.94,87.4,15,1.4,-64.1,2.34,-0.42,18.01,4.43,13.6
2026-05-01 09:02:34,52.41544,-1.479419,117.9,19.06,88.2,15,1.09,-62.1,3.95,0.46,19.87,2.66,12.4
2026-05-01 09:02:35,52.415439,-1.479349,116.7,21.23,88.0,11,1.0,-61.7,1.88,-0.02,19.29,5.41,11.6
2026-05-01 09:02:36,52.415797,-1.479169,117.5,17.53,87.6,11,1.2,-65.6,2.32,2.96,21.77,6.22,11.2
2026-05-01 09:02:37,52.415758,-1.478921,120.2,16.59,87.2,16,1.14,-70.8,1.86,-1.19,18.33,5.41,11.9
2026-05-01 09:02:38,52.415691,-1.47902,122.7,18.37,87.7,10,1.71,-68.4,3.86,0.22,19.95,5.48,11.0
2026-05-01 09:02:39,52.415976,-1.478672,120.6,16.8,86.8,15,1.3,-59.2,1.61,-0.64,20.68,3.16,13.0
2026-05-01 09:02:40,52.415913,-1.478521,118.8,20.22,87.6,11,1.14,-67.4,3.93,-2.15,23.9,5.61,10.2
2026-05-01 09:02:41,52.416189,-1.478531,120.9,17.58,87.9,12,1.04,-64.3,1.84,3.29,19.62,4.22,11.9
2026-05-01 09:02:42,52.416327,-1.478598,119.1,17.15,86.8,11,0.92,-70.4,0.71,-1.77,17.36,4.77,12.6
2026-05-01 09:02:43,52.416229,-1.478313,118.6,17.29,86.6,15,1.05,-63.3,3.02,0.33,21.27,4.55,12.3
2026-05-01 09:02:44,52.416507,-1.477989,117.7,19.08,88.1,14,1.22,-67.3,1.54,-2.61,23.42,3.82,11.3
2026-05-01 09:02:45,52.416552,-1.477988,116.5,17.76,87.0,17,1.41,-59.8,2.93,-0.6,19.17,2.71,12.7
2026-05-01 09:02:46,52.416693,-1.477952,119.2,17.04,87.8,15,1.37,-61.1,-2.09,0.63,21.62,3.88,11.1
2026-05-01 09:02:47,52.416901,-1.477769,120.3,20.5,87.1,12,1.23,-67.5,2.01,-1.24,22.51,5.48,12.0
2026-05-01 09:02:48,52.416787,-1.477501,119.8,16.72,87.1,10,1.15,-65.6,1.31,0.88,22.21,3.34,12.7
2026-05-01 09:02:49,52.416836,-1.477397,119.2,18.05,87.3,12,1.24,-67.8,0.41,-0.4,20.54,5.34,12.5
2026-05-01 09:02:50,52.416922,-1.477342,118.1,18.98,86.6,14,1.12,-72.1,1.17,1.74,19.02,5.11,11.3
2026-05-01 09:02:51,52.41703,-1.477221,121.2,15.55,87.1,14,1.46,-69.3,1.14,2.04,20.37,3.55,13.2
2026-05-01 09:02:52,52.417204,-1.477091,117.4,18.72,86.8,11,1.17,-64.0,1.93,-0.88,21.57,6.08,12.1
2026-05-01 09:02:53,52.417346,-1.47701,121.6,16.42,86.3,11,1.19,-63.4,-0.05,0.12,22.59,3.47,12.7
2026-05-01 09:02:54,52.417439,-1.476623,118.0,19.23,87.0,15,0.87,-64.3,2.47,0.28,21.56,6.26,13.5
2026-05-01 09:02:55,52.417594,-1.476683,118.5,16.56,86.7,13,1.17,-66.5,4.05,0.93,20.25,4.65,13.1
2026-05-01 09:02:56,52.417613,-1.476396,117.1,19.04,86.7,17,1.33,-60.3,2.42,0.02,22.24,3.98,13.1
2026-05-01 09:02:57,52.417857,-1.476232,119.0,19.66,86.1,12,1.04,-64.7,3.21,0.29,22.97,2.67,12.2
2026-05-01 09:02:58,52.417785,-1.476151,122.0,19.29,87.5,15,1.09,-61.5,3.64,-0.37,22.13,3.87,12.8
2026-05-01 09:02:59,52.418184,-1.476161,121.0,18.38,87.1,13,1.32,-73.9,3.85,0.17,19.82,3.69,12.2
2026-05-01 09:03:00,52.418075,-1.475944,122.0,17.65,87.1,15,0.98,-84.6,4.81,1.95,21.25,2.11,10.8
2026-05-01 09:03:01,52.418026,-1.475853,121.0,17.14,86.4,17,1.36,-63.6,1.25,0.97,23.63,3.67,12.3
2026-05-01 09:03:02,52.418105,-1.475808,117.8,20.21,85.6,17,1.12,-72.1,0.92,1.05,19.09,2.79,12.3
2026-05-01 09:03:03,52.41836,-1.475551,119.3,16.95,87.4,14,1.14,-66.1,3.18,1.08,17.79,4.88,12.6
2026-05-01 09:03:04,52.41839,-1.475568,118.4,16.44,86.4,11,1.03,-66.5,3.06,-0.23,25.11,5.96,11.9
2026-05-01 09:03:05,52.418584,-1.475198,122.7,19.0,86.0,11,1.26,-57.1,3.16,0.48,23.24,2.16,11.2
2026-05-01 09:03:06,52.41866,-1.47523,117.6,16.81,86.5,17,1.57,-63.0,4.83,-1.63,23.55,6.57,12.7
2026-05-01 09:03:07,52.418705,-1.47503,121.8,16.57,86.9,15,1.32,-64.2,2.02,1.9,20.3,3.81,10.7
2026-05-01 09:03:08,52.418728,-1.474888,121.8,15.83,86.2,17,1.07,-60.8,2.64,-4.17,24.05,2.54,13.5
2026-05-01 09:03:09,52.418761,-1.474809,123.7,17.28,86.8,11,1.37,-63.2,0.53,-0.13,23.25,5.14,11.8
2026-05-01 09:03:10,52.418968,-1.474591,119.2,17.88,86.7,10,1.15,-67.3,5.2,1.71,19.65,3.33,12.2
2026-05-01 09:03:11,52.419198,-1.474564,121.4,18.36,85.5,15,1.41,-59.6,1.5,-2.05,25.78,3.88,12.6
2026-05-01 09:03:12,52.419234,-1.474296,124.6,19.43,85.7,14,1.32,-70.5,1.54,0.6,23.37,3.39,12.6
2026-05-01 09:03:13,52.419188,-1.474384,118.8,18.79,86.5,16,0.8,-63.4,1.48,-1.02,22.38,2.77,10.6
2026-05-01 09:03:14,52.41943,-1.474103,116.9,17.71,84.6,15,1.05,-72.7,1.03,-0.55,22.54,5.09,12.8
2026-05-01 09:03:15,52.419552,-1.473789,116.2,17.7,85.8,15,1.34,-64.0,0.91,1.42,19.39,3.57,12.3
2026-05-01 09:03:16,52.419525,-1.473949,121.4,18.77,85.1,11,1.22,-64.0,1.21,0.3,24.72,1.85,11.4
2026-05-01 09:03:17,52.419729,-1.473784,116.2,19.91,85.6,14,1.05,-56.6,-0.05,-3.05,24.18,4.83,11.3
2026-05-01 09:03:18,52.419819,-1.473531,119.3,18.19,85.6,15,1.1,-72.8,0.82,-1.46,23.39,2.19,11.7
2026-05-01 09:03:19,52.419799,-1.473431,120.9,17.3,85.5,11,0.91,-68.0,4.92,1.46,26.45,2.27,10.7
2026-05-01 09:03:20,52.420049,-1.47328,120.4,16.51,85.4,17,1.19,-60.9,3.1,0.67,21.25,5.79,13.7
2026-05-01 09:03:21,52.420169,-1.473133,120.9,15.83,85.1,12,1.53,-63.3,3.39,2.62,22.94,2.21,13.5
2026-05-01 09:03:22,52.420322,-1.472985,120.4,19.0,86.7,14,1.32,-64.1,3.77,2.52,22.56,0.53,12.5
2026-05-01 09:03:23,52.420419,-1.472804,122.6,18.87,86.5,13,1.53,-69.8,4.75,-0.51,23.82,4.93,11.8
2026-05-01 09:03:24,52.420276,-1.472741,118.1,18.87,84.9,10,1.33,-68.0,-0.66,3.75,24.63,3.54,11.8
2026-05-01 09:03:25,52.42042,-1.472673,118.6,17.81,86.2,13,1.35,-58.8,0.16,0.04,25.48,3.67,12.8
2026-05-01 09:03:26,52.420665,-1.472448,118.5,20.11,85.2,16,1.5,-65.3,0.79,-1.44,24.04,3.53,13.8
2026-05-01 09:03:27,52.420765,-1.472192,121.7,17.27,85.4,17,1.26,-63.1,1.3,-0.95,23.1,4.35,11.4
2026-05-01 09:03:28,52.420865,-1.472261,121.8,19.43,85.3,14,1.17,-65.6,1.55,-3.39,28.35,2.87,10.9
2026-05-01 09:03:29,52.421299,-1.472212,120.9,17.94,84.9,15,1.35,-70.9,1.33,2.41,29.92,6.21,13.5
2026-05-01 09:03:30,52.421071,-1.471871,122.4,17.09,85.7,11,1.42,-60.3,2.33,2.39,25.5,1.79,10.2
2026-05-01 09:03:31,52.421228,-1.47186,117.6,18.89,85.2,16,1.13,-62.5,2.05,-1.52,23.82,4.67,11.0
2026-05-01 09:03:32,52.42131,-1.471932,123.3,18.61,84.9,14,1.09,-53.5,0.92,-0.34,28.41,4.96,11.8
2026-05-01 09:03:33,52.421379,-1.471496,123.0,18.54,84.4,10,1.22,-70.1,-1.26,0.14,22.68,2.86,10.4
2026-05-01 09:03:34,52.421383,-1.471501,121.5,18.12,84.6,14,1.32,-60.9,0.51,-1.44,25.03,2.46,13.1
2026-05-01 09:03:35,52.42159,-1.471323,123.6,17.94,84.1,16,1.32,-71.6,1.18,-2.63,24.42,5.53,12.9
2026-05-01 09:03:36,52.421537,-1.471148,116.7,21.58,84.9,11,0.99,-64.2,1.63,-0.32,23.62,2.51,11.4
2026-05-01 09:03:37,52.421691,-1.471028,119.0,19.78,84.3,13,1.49,-60.1,0.31,-0.48,25.5,3.09,13.3
2026-05-01 09:03:38,52.421766,-1.470843,118.5,19.08,84.7,12,1.1,-75.4,1.26,-0.58,24.45,5.33,13.4
2026-05-01 09:03:39,52.421923,-1.470824,121.4,18.17,85.5,13,1.16,-66.0,0.3,0.33,26.32,4.05,11.9
2026-05-01 09:03:40,52.422246,-1.470596,117.9,19.51,85.3,11,1.06,-67.8,1.81,2.14,26.47,1.3,11.5
2026-05-01 09:03:41,52.421928,-1.47054,121.5,18.78,84.7,16,1.6,-68.5,0.39,-0.45,25.3,6.62,14.3
2026-05-01 09:03:42,52.422283,-1.470306,122.7,18.04,84.6,11,1.24,-63.1,0.73,0.26,25.92,3.2,12.7
2026-05-01 09:03:43,52.422154,-1.470185,121.4,17.54,85.5,17,1.07,-59.4,0.04,1.09,26.32,3.4,12.3
2026-05-01 09:03:44,52.422368,-1.470207,120.6,17.88,84.8,10,1.33,-65.7,1.77,0.83,28.52,4.38,13.4
2026-05-01 09:03:45,52.422624,-1.469871,118.0,13.24,84.3,14,1.32,-64.0,0.7,-0.92,26.72,4.94,12.3
2026-05-01 09:03:46,52.422622,-1.4699,118.3,18.32,83.7,17,1.17,-64.4,3.36,0.14,28.79,6.94,11.5
2026-05-01 09:03:47,52.422607,-1.469632,122.5,17.27,84.6,14,1.33,-65.0,2.61,0.82,28.43,1.51,12.1
2026-05-01 09:03:48,52.422744,-1.469543,121.6,20.39,84.8,13,1.08,-70.4,1.9,-1.69,28.52,5.24,13.0
2026-05-01 09:03:49,52.422983,-1.469262,119.9,18.03,84.0,16,1.13,-59.5,0.8,1.9,30.27,5.11,10.0
2026-05-01 09:03:50,52.422942,-1.469335,119.2,16.22,84.4,12,0.9,-63.5,2.57,2.15,25.38,3.79,11.7
2026-05-01 09:03:51,52.423137,-1.469214,115.9,17.93,84.0,12,1.0,-63.0,3.04,-1.08,26.79,5.18,13.4
2026-05-01 09:03:52,52.42322,-1.469048,117.9,16.43,84.1,10,1.47,-69.0,2.21,0.29,31.39,5.4,11.5
2026-05-01 09:03:53,52.42325,-1.468943,123.8,18.71,82.9,11,1.45,-67.3,4.41,0.96,27.46,1.93,13.5
2026-05-01 09:03:54,52.42363,-1.468699,117.4,18.44,84.0,10,1.21,-65.9,2.69,-0.82,22.47,6.62,13.4
2026-05-01 09:03:55,52.423579,-1.468807,120.4,19.44,84.5,14,1.45,-72.7,3.37,0.72,27.81,1.66,11.9
2026-05-01 09:03:56,52.423413,-1.468618,122.0,16.81,83.7,15,1.18,-73.4,2.2,0.24,28.61,2.3,11.4
2026-05-01 09:03:57,52.423734,-1.468486,117.5,18.05,84.0,15,1.16,-68.0,3.01,-2.2,23.22,3.61,11.7
2026-05-01 09:03:58,52.42375,-1.46815,120.4,15.95,83.5,15,1.21,-62.4,0.8,0.69,31.25,6.89,14.7
2026-05-01 09:03:59,52.424001,-1.467941,121.9,19.05,84.0,11,1.18,-68.3,1.31,-1.65,27.27,3.54,13.9
2026-05-01 09:04:00,52.423937,-1.467989,120.0,18.78,83.7,10,1.17,-70.1,2.52,1.41,29.48,3.95,12.1
2026-05-01 09:04:01,52.424105,-1.467862,125.7,18.74,83.3,17,1.37,-69.1,2.51,-1.01,28.49,6.15,11.4
2026-05-01 09:04:02,52.424267,-1.467705,116.7,18.0,84.4,16,1.22,-67.3,2.76,-0.24,26.48,3.55,12.1
2026-05-01 09:04:03,52.424403,-1.467462,122.1,18.62,84.1,13,1.31,-66.8,3.65,2.06,27.04,2.23,12.2
2026-05-01 09:04:04,52.424296,-1.467538,119.7,20.41,83.3,14,1.35,-54.2,-0.14,0.74,27.43,3.37,10.8
2026-05-01 09:04:05,52.424483,-1.467288,121.5,17.57,83.8,15,1.26,-59.7,0.54,-1.62,31.59,6.06,12.1
2026-05-01 09:04:06,52.424569,-1.467081,120.9,18.21,83.8,16,1.05,-59.9,2.34,-1.52,29.24,4.11,13.3
2026-05-01 09:04:07,52.424651,-1.466995,118.5,16.37,83.8,12,1.0,-59.2,0.91,-0.9,28.62,6.9,10.2
2026-05-01 09:04:08,52.424993,-1.466892,120.5,16.7,82.6,17,1.22,-70.0,7.07,0.59,27.91,5.11,12.8
2026-05-01 09:04:09,52.424957,-1.466678,116.3,18.15,83.9,10,1.17,-71.1,2.77,0.54,32.29,3.03,13.4
2026-05-01 09:04:10,52.424891,-1.466915,121.2,19.66,83.0,14,1.21,-70.5,1.88,-1.26,32.95,4.08,11.4
2026-05-01 09:04:11,52.425209,-1.466443,120.6,17.62,83.1,14,1.2,-58.3,1.23,-1.75,32.51,2.72,13.7
2026-05-01 09:04:12,52.425429,-1.466443,121.3,17.65,84.6,12,1.59,-67.7,1.28,0.42,31.25,3.0,11.3
2026-05-01 09:04:13,52.42542,-1.466427,122.1,17.39,83.3,17,1.0,-71.3,2.05,-0.27,30.96,10.72,12.4
2026-05-01 09:04:14,52.425265,-1.46606,120.7,17.2,82.9,12,0.9,-67.2,2.17,3.24,28.07,5.53,11.7
2026-05-01 09:04:15,52.425469,-1.46584,120.3,18.44,82.0,12,1.25,-66.2,1.31,0.05,30.13,5.29,11.7
2026-05-01 09:04:16,52.425744,-1.465858,118.2,15.75,83.7,15,1.14,-63.7,1.59,2.72,29.37,3.07,11.4
2026-05-01 09:04:17,52.425646,-1.465615,118.6,19.92,82.3,17,1.25,-63.7,4.02,-1.76,27.21,6.35,12.7
2026-05-01 09:04:18,52.425862,-1.465416,122.4,17.0,82.5,15,1.29,-69.1,4.08,-2.36,33.09,5.65,12.8
2026-05-01 09:04:19,52.425995,-1.465312,122.9,19.08,82.7,10,1.39,-61.6,2.38,-1.68,29.71,6.82,11.9
2026-05-01 09:04:20,52.425925,-1.465146,119.5,16.1,83.6,12,0.97,-68.2,-0.01,1.78,33.61,6.75,10.6
2026-05-01 09:04:21,52.426111,-1.465103,120.1,19.0,83.2,13,1.12,-65.8,2.81,2.63,33.1,1.78,12.4
2026-05-01 09:04:22,52.425893,-1.465036,118.2,19.01,82.7,14,1.26,-61.6,4.33,-1.17,32.57,2.34,12.4
2026-05-01 09:04:23,52.426215,-1.46507,122.3,18.58,82.9,17,1.32,-68.2,4.05,-0.69,32.81,2.49,11.8
2026-05-01 09:04:24,52.426392,-1.464801,121.3,16.51,82.4,12,1.53,-67.8,3.1,-1.75,30.47,2.58,13.9
2026-05-01 09:04:25,52.426393,-1.464727,123.9,18.37,82.7,17,1.34,-62.0,4.13,-2.72,35.54,4.49,10.4
2026-05-01 09:04:26,52.426781,-1.464293,118.2,16.23,82.6,14,1.19,-69.3,2.08,1.08,32.03,3.15,9.8
2026-05-01 09:04:27,52.426575,-1.464394,119.2,17.62,83.0,11,1.07,-66.9,2.94,0.33,32.67,7.11,11.3
2026-05-01 09:04:28,52.426774,-1.464231,120.5,19.54,83.0,16,1.12,-62.2,0.98,0.02,30.88,6.86,12.7
2026-05-01 09:04:29,52.426931,-1.464054,121.3,19.2,82.7,11,1.11,-54.7,2.44,-2.1,30.44,3.99,10.9
2026-05-01 09:04:30,52.427162,-1.463972,119.6,18.02,82.2,12,1.3,-62.0,3.99,2.46,33.38,6.93,11.0
2026-05-01 09:04:31,52.426974,-1.463673,118.3,16.54,82.7,14,1.24,-62.6,1.12,-0.76,32.98,6.23,13.0
2026-05-01 09:04:32,52.427334,-1.463771,121.8,18.97,82.3,16,1.0,-62.3,0.71,0.8,31.08,3.32,12.5
2026-05-01 09:04:33,52.427319,-1.463556,121.4,18.03,81.7,11,1.13,-70.4,2.15,-2.18,29.91,0.99,12.4
2026-05-01 09:04:34,52.42732,-1.463517,118.2,14.52,82.0,12,1.33,-64.4,1.66,-0.29,30.36,3.67,12.8
2026-05-01 09:04:35,52.427565,-1.463441,122.7,19.17,82.2,14,1.25,-65.1,2.97,0.44,35.41,3.03,11.6
2026-05-01 09:04:36,52.427638,-1.463237,122.3,17.96,82.6,12,1.29,-63.4,1.32,0.49,31.92,4.31,11.6
2026-05-01 09:04:37,52.427658,-1.463046,120.3,19.8,82.0,15,1.26,-64.4,4.58,0.23,32.58,4.13,12.8
2026-05-01 09:04:38,52.427826,-1.462952,120.2,16.36,81.4,14,1.44,-63.1,0.07,0.74,36.28,4.09,10.7
2026-05-01 09:04:39,52.42788,-1.462844,121.1,13.23,82.0,11,1.24,-66.6,3.88,-1.7,31.26,4.79,9.9
2026-05-01 09:04:40,52.42803,-1.462782,118.3,18.42,82.0,12,1.14,-64.7,0.85,0.3,32.17,2.18,11.6
2026-05-01 09:04:41,52.428185,-1.462517,120.1,18.44,82.0,17,1.06,-71.1,-0.69,0.17,32.2,4.62,12.9
2026-05-01 09:04:42,52.428377,-1.462525,115.7,15.46,82.3,11,1.24,-66.6,2.36,0.35,37.1,3.34,12.3
2026-05-01 09:04:43,52.428195,-1.462165,121.8,16.53,82.3,12,0.83,-58.0,1.62,0.11,37.97,4.3,12.9
2026-05-01 09:04:44,52.428632,-1.4621,116.9,22.13,81.4,17,1.17,-63.4,0.34,-1.91,35.61,5.44,10.0
2026-05-01 09:04:45,52.428324,-1.46212,123.0,17.54,81.4,17,1.17,-65.1,-0.52,-1.98,35.79,2.16,12.3
2026-05-01 09:04:46,52.428604,-1.461872,119.3,19.1,81.1,10,1.0,-55.5,1.99,-3.32,33.18,3.58,12.7
2026-05-01 09:04:47,52.428778,-1.461783,119.6,17.02,81.9,17,1.06,-71.8,3.46,1.23,38.36,3.82,10.6
2026-05-01 09:04:48,52.428847,-1.461542,118.7,14.86,82.3,11,1.32,-70.5,2.88,1.24,35.12,3.23,12.9
2026-05-01 09:04:49,52.428857,-1.461307,119.4,17.74,81.3,11,1.23,-56.4,2.09,1.27,36.41,5.35,11.9
2026-05-01 09:04:50,52.428999,-1.461495,122.8,17.6,81.3,13,1.22,-64.8,2.72,0.46,34.61,2.92,15.1
2026-05-01 09:04:51,52.42907,-1.461163,115.0,17.4,82.1,16,1.25,-66.2,1.96,-3.2,34.41,3.17,9.8
2026-05-01 09:04:52,52.429161,-1.461057,122.6,17.83,81.6,15,1.21,-71.0,-0.14,-1.54,38.39,2.94,13.4
2026-05-01 09:04:53,52.429405,-1.46084,120.7,18.4,81.5,11,1.39,-62.8,-0.13,0.26,36.26,5.64,11.6
2026-05-01 09:04:54,52.429455,-1.460753,117.6,17.77,80.7,14,1.22,-62.3,1.7,0.2,38.21,3.26,10.4
2026-05-01 09:04:55,52.42945,-1.460716,117.8,16.1,81.6,16,0.98,-70.5,1.76,-0.33,35.93,4.69,11.5
2026-05-01 09:04:56,52.42971,-1.460539,123.4,18.73,80.7,17,1.44,-65.7,3.28,0.55,33.85,6.96,12.3
2026-05-01 09:04:57,52.429751,-1.460453,118.1,15.08,80.6,12,1.26,-66.7,3.14,0.02,34.5,3.89,13.0
2026-05-01 09:04:58,52.429901,-1.460133,117.7,14.92,80.9,10,1.11,-63.7,2.91,0.18,35.99,5.67,13.7
2026-05-01 09:04:59,52.429983,-1.460105,122.3,19.11,80.7,14,1.01,-70.6,1.58,-0.96,34.65,6.51,13.4
2026-05-01 09:05:00,52.429937,-1.459783,120.7,18.76,80.9,16,1.26,-58.7,-0.07,1.47,33.81,5.54,11.0
2026-05-01 09:05:01,52.430064,-1.459846,118.1,17.91,80.2,14,1.18,-60.4,2.62,-0.65,38.55,3.97,13.1
2026-05-01 09:05:02,52.430295,-1.459777,120.4,15.91,81.4,14,1.44,-66.8,2.79,-2.0,35.17,4.96,12.4
2026-05-01 09:05:03,52.430381,-1.459724,117.9,16.94,81.4,14,1.15,-66.1,-1.58,-1.16,36.66,2.07,11.3
2026-05-01 09:05:04,52.430418,-1.45962,122.2,17.61,79.8,16,1.07,-65.7,0.75,-0.52,37.1,2.83,11.8
2026-05-01 09:05:05,52.430532,-1.459465,122.1,15.61,81.2,10,1.33,-68.9,0.96,1.49,35.45,3.09,11.3
2026-05-01 09:05:06,52.430748,-1.459146,121.1,16.89,80.3,17,1.34,-67.2,2.18,-0.06,39.65,7.36,12.0
2026-05-01 09:05:07,52.430661,-1.458988,120.7,18.98,81.1,13,1.23,-66.4,0.79,-0.28,34.63,2.78,11.3
2026-05-01 09:05:08,52.430875,-1.459064,123.5,20.14,80.6,15,1.3,-56.9,1.94,-1.87,37.51,2.76,11.0
2026-05-01 09:05:09,52.4309,-1.458683,120.0,17.37,80.6,17,1.19,-60.3,1.68,1.18,37.6,2.43,12.5
2026-05-01 09:05:10,52.430999,-1.458687,117.6,19.13,80.4,11,1.24,-60.3,1.76,-0.98,37.12,4.84,12.6
2026-05-01 09:05:11,52.431231,-1.458491,120.9,15.13,81.1,16,1.37,-63.2,0.93,-0.15,34.75,4.21,11.8
2026-05-01 09:05:12,52.431303,-1.458211,124.2,18.99,79.8,14,1.29,-70.6,1.04,2.22,39.21,5.63,13.4
2026-05-01 09:05:13,52.431402,-1.458149,118.0,16.79,80.7,17,1.17,-65.2,0.38,0.76,39.07,5.01,11.7
2026-05-01 09:05:14,52.431551,-1.458132,119.3,18.46,80.9,11,1.4,-60.1,2.57,-2.44,36.35,1.93,11.7
2026-05-01 09:05:15,52.431523,-1.458061,120.8,17.63,80.6,16,0.85,-71.3,2.86,-2.65,39.24,2.79,12.7
2026-05-01 09:05:16,52.431689,-1.458054,119.9,19.98,81.4,11,1.51,-61.8,0.84,-0.1,38.7,6.05,11.9
2026-05-01 09:05:17,52.43169,-1.457777,118.0,16.69,79.9,14,0.94,-53.4,4.28,-1.82,35.5,3.7,12.1
2026-05-01 09:05:18,52.431854,-1.457593,122.2,18.94,80.6,13,1.11,-59.7,1.53,0.97,36.48,5.78,9.5
2026-05-01 09:05:19,52.431908,-1.457537,124.6,17.58,80.1,16,1.19,-57.9,4.3,0.06,40.58,3.78,12.0
2026-05-01 09:05:20,52.432031,-1.457318,120.4,17.76,80.7,11,1.18,-63.9,1.04,0.25,39.04,2.55,10.2
2026-05-01 09:05:21,52.432181,-1.457164,118.2,17.72,80.0,12,1.35,-60.2,-1.04,-1.06,37.42,3.55,10.8
2026-05-01 09:05:22,52.43214,-1.457061,116.9,16.73,79.8,11,1.04,-68.6,2.6,2.61,36.95,2.55,10.7
2026-05-01 09:05:23,52.432531,-1.45697,120.5,17.98,80.6,15,1.24,-61.0,2.37,4.26,37.76,3.15,11.0
2026-05-01 09:05:24,52.432321,-1.456754,122.2,17.91,79.6,14,1.11,-61.7,2.05,-0.42,38.02,4.3,11.5
2026-05-01 09:05:25,52.4324,-1.456594,121.0,18.36,79.1,10,1.24,-63.6,1.04,0.53,37.33,4.77,11.5
2026-05-01 09:05:26,52.432738,-1.456613,120.0,18.13,79.5,11,1.19,-58.4,1.95,0.15,35.66,1.61,12.7
2026-05-01 09:05:27,52.432801,-1.45623,118.8,19.2,80.0,13,1.21,-67.7,1.23,-0.39,41.55,3.97,12.2
2026-05-01 09:05:28,52.432884,-1.456247,117.8,19.39,80.4,12,1.12,-65.9,1.55,-1.25,41.33,3.12,10.1
2026-05-01 09:05:29,52.432985,-1.456102,121.7,16.42,79.7,12,1.12,-64.5,3.26,-1.63,36.96,3.03,12.1
2026-05-01 09:05:30,52.433021,-1.4559,121.8,19.3,80.2,10,1.24,-70.1,2.28,-1.7,39.9,4.2,12.3
2026-05-01 09:05:31,52.433032,-1.455814,116.9,16.22,78.9,17,1.34,-63.9,2.91,0.61,37.94,3.17,11.7
2026-05-01 09:05:32,52.43323,-1.455608,123.2,18.88,79.3,15,1.11,-73.6,1.65,-0.78,39.34,6.07,11.9
2026-05-01 09:05:33,52.433254,-1.455542,121.1,18.93,79.3,10,1.07,-59.8,1.49,-3.87,39.3,5.78,12.2
2026-05-01 09:05:34,52.43352,-1.455498,122.8,15.13,79.3,15,1.29,-64.8,0.27,0.67,39.25,5.77,12.8
2026-05-01 09:05:35,52.433508,-1.455267,117.3,18.14,79.4,11,1.2,-67.6,1.44,-0.06,44.23,3.26,10.4
2026-05-01 09:05:36,52.43354,-1.455284,117.3,17.3,79.7,14,1.32,-69.2,-2.98,2.02,39.47,2.56,11.8
2026-05-01 09:05:37,52.43369,-1.455026,119.7,16.86,79.0,13,1.06,-66.2,1.11,0.56,38.85,4.12,13.5
2026-05-01 09:05:38,52.433864,-1.454907,121.0,20.03,79.3,12,0.93,-61.6,1.88,-2.22,39.06,3.77,13.4
2026-05-01 09:05:39,52.433866,-1.454791,123.6,17.02,79.1,10,1.12,-62.3,2.85,-3.34,42.79,3.09,12.9
2026-05-01 09:05:40,52.43394,-1.454649,121.4,16.79,78.7,13,1.09,-68.5,1.6,-1.08,37.52,2.24,12.5
2026-05-01 09:05:41,52.434147,-1.454691,119.5,18.11,79.0,15,1.19,-69.2,2.52,-0.94,39.42,3.94,13.7
2026-05-01 09:05:42,52.434247,-1.454424,117.9,19.03,79.0,14,1.1,-61.7,-1.27,1.41,43.96,3.39,13.9
2026-05-01 09:05:43,52.434272,-1.454227,122.5,17.79,78.9,12,1.31,-68.6,1.91,-0.01,41.68,5.03,11.9
2026-05-01 09:05:44,52.434376,-1.454087,118.1,19.75,79.0,12,1.16,-64.7,-0.52,1.7,41.69,5.0,11.0
2026-05-01 09:05:45,52.434546,-1.454072,123.3,18.8,78.9,15,1.22,-64.4,0.19,-1.99,45.69,5.65,11.7
2026-05-01 09:05:46,52.434478,-1.453709,119.4,14.73,78.6,14,1.22,-63.4,1.72,1.45,42.04,2.11,15.1
2026-05-01 09:05:47,52.434582,-1.453789,123.2,17.21,79.4,12,1.23,-60.7,3.91,1.08,40.25,4.6,10.4
2026-05-01 09:05:48,52.434751,-1.453472,121.4,17.16,78.2,14,1.2,-71.3,2.56,-3.03,41.22,2.91,11.5
2026-05-01 09:05:49,52.434902,-1.453393,119.7,18.72,78.3,12,1.28,-74.6,2.03,1.98,39.64,2.17,10.6
2026-05-01 09:05:50,52.435054,-1.453367,119.0,14.06,80.0,11,1.08,-67.8,1.97,0.14,44.54,3.36,12.1
2026-05-01 09:05:51,52.435271,-1.452991,119.3,21.82,78.1,15,1.41,-56.0,0.93,0.59,43.3,5.6,10.8
2026-05-01 09:05:52,52.435309,-1.453155,120.9,18.8,77.9,14,1.16,-54.9,1.18,-1.3,44.52,3.44,11.9
2026-05-01 09:05:53,52.435308,-1.45281,120.2,18.22,78.9,13,1.0,-55.8,2.64,1.91,44.81,6.35,10.0
2026-05-01 09:05:54,52.435422,-1.452668,118.8,19.77,77.4,17,1.23,-66.0,-0.08,-1.78,41.68,4.82,12.6
2026-05-01 09:05:55,52.435423,-1.452702,119.7,21.52,78.3,11,1.07,-73.9,2.89,1.25,40.74,3.41,13.2
2026-05-01 09:05:56,52.435622,-1.452362,120.2,19.31,79.4,16,1.3,-76.7,1.42,1.23,42.65,5.74,11.6
2026-05-01 09:05:57,52.435695,-1.452393,115.7,19.42,77.6,13,1.53,-68.1,3.24,-1.46,41.12,4.67,11.9
2026-05-01 09:05:58,52.435856,-1.452206,120.9,18.2,77.3,15,1.08,-66.0,3.44,2.98,43.32,2.6,11.8
2026-05-01 09:05:59,52.435841,-1.452075,118.0,17.79,77.5,12,1.25,-58.5,-0.51,0.35,45.37,6.79,12.2
2026-05-01 09:06:00,52.436076,-1.451981,117.7,17.29,78.6,16,0.94,-60.7,1.13,0.98,42.89,4.39,12.0
2026-05-01 09:06:01,52.436277,-1.451753,116.6,16.76,78.7,13,1.27,-63.9,0.72,-2.29,43.65,4.03,12.8
2026-05-01 09:06:02,52.436213,-1.451622,116.4,16.97,77.8,11,1.07,-69.4,-0.72,3.18,43.28,2.72,13.2
2026-05-01 09:06:03,52.436364,-1.451743,117.3,15.97,78.4,16,1.11,-69.8,0.45,-1.84,45.19,5.77,11.2
2026-05-01 09:06:04,52.436493,-1.451304,118.6,17.89,78.7,16,1.03,-63.7,5.66,1.54,42.37,4.78,11.7
2026-05-01 09:06:05,52.436484,-1.451467,123.9,15.47,78.8,14,1.31,-61.5,2.91,-1.49,39.44,4.94,12.9
2026-05-01 09:06:06,52.436647,-1.451064,118.9,18.29,77.8,10,1.35,-63.0,4.88,-0.93,44.89,3.24,10.6
2026-05-01 09:06:07,52.436726,-1.450921,120.4,17.95,76.7,13,1.2,-70.2,3.24,1.18,46.05,5.25,10.0
2026-05-01 09:06:08,52.436834,-1.45101,120.8,18.22,77.4,10,1.07,-61.7,0.89,1.54,45.08,5.37,12.2
2026-05-01 09:06:09,52.436847,-1.450808,120.3,17.22,77.6,15,1.44,-62.9,1.43,-1.91,43.03,3.0,12.5
2026-05-01 09:06:10,52.437027,-1.450744,119.8,22.62,77.6,13,1.09,-70.4,2.88,1.64,42.16,1.87,11.3
2026-05-01 09:06:11,52.437175,-1.450522,117.6,20.04,77.6,13,0.88,-68.9,2.66,1.57,45.54,4.87,11.4
2026-05-01 09:06:12,52.43737,-1.450398,122.9,16.13,78.2,14,1.27,-61.6,1.13,-1.41,44.95,1.64,11.2
2026-05-01 09:06:13,52.437421,-1.450156,123.6,18.35,78.2,12,1.03,-66.2,-0.26,2.4,44.54,4.23,11.1
2026-05-01 09:06:14,52.43764,-1.449969,116.6,17.09,77.4,11,1.35,-57.1,6.93,-2.19,48.55,3.33,12.7
2026-05-01 09:06:15,52.437448,-1.449827,118.0,16.48,78.0,11,1.14,-62.5,1.79,-0.94,43.14,5.83,10.8
2026-05-01 09:06:16,52.437712,-1.449889,119.4,15.99,77.6,11,1.29,-67.4,1.51,0.72,48.7,3.41,11.7
2026-05-01 09:06:17,52.437743,-1.449721,118.1,18.65,77.4,17,1.41,-65.1,2.17,-1.28,45.33,5.66,11.1
2026-05-01 09:06:18,52.438044,-1.449735,121.0,16.98,77.8,15,1.02,-64.7,1.64,0.4,41.72,3.23,10.5
2026-05-01 09:06:19,52.437844,-1.449514,118.5,19.45,77.3,16,1.12,-68.6,2.18,0.36,45.15,5.5,12.9
2026-05-01 09:06:20,52.437941,-1.449203,124.3,19.49,78.3,12,1.19,-69.6,3.93,-0.28,47.55,7.09,11.5
2026-05-01 09:06:21,52.438065,-1.449005,122.4,20.06,76.5,10,1.43,-61.5,1.81,1.25,45.02,2.4,12.2
2026-05-01 09:06:22,52.438013,-1.449156,120.4,16.72,76.9,11,1.1,-60.8,0.26,-0.34,42.92,4.44,10.5
2026-05-01 09:06:23,52.438273,-1.448959,122.1,18.71,77.1,17,1.11,-62.0,1.76,0.35,45.66,8.12,11.3
2026-05-01 09:06:24,52.43835,-1.448768,122.2,18.95,77.3,10,1.27,-57.4,1.3,1.72,44.4,4.1,12.8
2026-05-01 09:06:25,52.438541,-1.448604,118.9,17.29,77.7,12,1.11,-67.7,4.14,1.19,47.21,4.09,14.6
2026-05-01 09:06:26,52.43866,-1.44858,118.4,16.84,77.0,15,1.22,-56.6,3.76,1.18,47.9,5.18,10.0
2026-05-01 09:06:27,52.438913,-1.448323,120.2,20.41,76.2,12,0.97,-69.5,2.16,-1.72,44.36,4.06,11.8
2026-05-01 09:06:28,52.438921,-1.44828,121.7,18.34,77.3,14,1.53,-70.1,0.08,0.79,45.18,1.44,12.4
2026-05-01 09:06:29,52.438868,-1.4481,120.3,18.95,77.2,16,1.0,-73.8,0.16,-1.32,48.22,5.7,11.4
2026-05-01 09:06:30,52.438936,-1.447911,116.8,16.77,75.8,11,1.15,-67.2,2.02,-1.92,45.11,1.0,12.8
2026-05-01 09:06:31,52.439175,-1.447831,118.4,16.17,76.7,15,1.2,-67.5,2.5,-0.11,44.79,3.37,11.1
2026-05-01 09:06:32,52.439094,-1.447742,119.9,17.15,75.9,14,1.49,-62.4,1.44,-1.36,44.71,5.81,12.2
2026-05-01 09:06:33,52.439509,-1.447576,119.8,17.81,76.3,11,1.0,-63.8,1.28,1.19,47.9,3.47,11.5
2026-05-01 09:06:34,52.439544,-1.44744,123.9,16.4,76.1,12,1.5,-71.0,1.11,1.22,47.93,2.96,13.2
2026-05-01 09:06:35,52.439479,-1.447335,117.2,17.99,77.0,12,1.31,-67.0,1.96,-2.85,46.06,5.32,11.3
2026-05-01 09:06:36,52.439455,-1.447191,121.0,15.47,76.6,17,1.26,-66.9,-1.57,-1.24,47.56,2.72,11.6
2026-05-01 09:06:37,52.439862,-1.446871,123.0,16.32,75.8,13,1.05,-73.9,0.35,-2.19,50.73,2.17,12.9
2026-05-01 09:06:38,52.439815,-1.446842,124.5,19.01,76.9,13,1.29,-69.9,1.06,-0.69,45.84,4.41,11.0
2026-05-01 09:06:39,52.44005,-1.446794,119.2,18.91,75.7,12,1.09,-68.9,3.81,0.68,44.01,3.73,12.1
2026-05-01 09:06:40,52.439867,-1.446561,121.0,17.41,76.5,12,1.39,-57.8,0.78,-0.36,48.94,2.13,10.2
2026-05-01 09:06:41,52.440067,-1.446531,121.1,16.47,75.9,10,1.05,-64.0,2.27,-0.88,47.93,4.96,10.9
2026-05-01 09:06:42,52.440227,-1.446247,120.4,16.46,76.0,17,1.18,-61.7,2.34,1.95,46.85,4.7,12.4
2026-05-01 09:06:43,52.440332,-1.446194,119.8,17.44,76.4,16,1.12,-72.5,3.95,-3.46,49.7,3.46,11.0
2026-05-01 09:06:44,52.440382,-1.446108,120.9,18.97,76.4,10,1.05,-59.0,3.89,1.86,50.19,3.56,11.5
2026-05-01 09:06:45,52.440589,-1.445919,114.9,19.39,76.8,16,1.31,-58.5,1.91,-0.82,44.22,4.71,12.5
2026-05-01 09:06:46,52.44052,-1.445988,121.4,17.26,76.0,14,1.28,-75.0,1.29,-0.12,47.45,5.79,11.4
2026-05-01 09:06:47,52.440713,-1.44581,120.3,16.27,76.1,13,1.38,-68.5,1.0,-0.79,53.51,3.58,12.8
2026-05-01 09:06:48,52.440839,-1.445683,119.6,18.4,75.7,13,0.93,-62.5,1.64,2.31,50.16,4.98,12.2
2026-05-01 09:06:49,52.440979,-1.445416,124.1,16.76,76.0,17,1.36,-61.8,1.35,-1.85,50.46,4.85,12.4
2026-05-01 09:06:50,52.441099,-1.445124,118.7,17.22,76.1,12,1.58,-68.4,2.83,0.02,51.58,5.32,13.2
2026-05-01 09:06:51,52.441015,-1.44494,119.2,19.99,75.8,12,1.13,-66.5,2.63,0.79,49.39,4.06,12.3
2026-05-01 09:06:52,52.441074,-1.444966,124.0,19.24,74.9,14,1.48,-68.0,2.89,-2.42,51.07,2.63,13.5
2026-05-01 09:06:53,52.441455,-1.444847,118.3,18.24,75.9,15,1.16,-64.4,3.89,-1.38,51.03,3.31,12.9
2026-05-01 09:06:54,52.441461,-1.444943,118.9,16.09,75.8,15,0.99,-59.0,4.79,-0.22,50.79,4.51,11.5
2026-05-01 09:06:55,52.441453,-1.444684,119.7,18.32,75.3,17,1.15,-68.9,2.19,-1.33,49.19,6.73,13.3
2026-05-01 09:06:56,52.441783,-1.444575,121.7,19.59,74.9,15,1.36,-60.0,3.65,-1.22,50.3,3.27,12.3
2026-05-01 09:06:57,52.441739,-1.444425,120.4,17.44,76.3,13,1.07,-68.9,1.47,-0.52,48.9,5.21,11.6
2026-05-01 09:06:58,52.441946,-1.444246,117.4,20.03,75.7,10,1.11,-69.2,3.78,0.97,50.22,3.51,12.3
2026-05-01 09:06:59,52.441935,-1.444143,118.9,19.94,75.3,15,1.29,-60.9,3.59,-0.51,47.98,4.17,13.1
2026-05-01 09:07:00,52.442234,-1.444161,118.8,20.5,74.8,11,1.2,-60.4,3.51,1.62,48.85,6.27,12.5
2026-05-01 09:07:01,52.442304,-1.443754,119.8,18.46,74.9,17,1.29,-60.7,2.14,-1.5,49.99,5.15,13.8
2026-05-01 09:07:02,52.442203,-1.443803,120.9,18.88,75.9,14,1.24,-71.6,1.0,-1.88,48.79,2.14,13.1
2026-05-01 09:07:03,52.442425,-1.443538,120.8,20.12,75.3,15,1.27,-67.3,-0.09,2.89,49.78,3.14,12.5
2026-05-01 09:07:04,52.442493,-1.443222,116.4,18.67,74.9,11,1.14,-60.9,1.94,-0.99,50.59,5.88,11.0
2026-05-01 09:07:05,52.442665,-1.443387,122.1,17.25,75.4,15,1.23,-64.8,4.3,-1.97,51.84,4.21,11.8
2026-05-01 09:07:06,52.442532,-1.443415,120.5,17.33,74.7,10,1.06,-70.4,1.54,-2.61,53.05,2.28,12.1
2026-05-01 09:07:07,52.442797,-1.443057,122.8,18.36,75.8,10,1.39,-62.7,3.18,1.61,50.35,2.77,12.7
2026-05-01 09:07:08,52.442934,-1.442785,120.9,16.06,75.7,15,1.1,-68.6,3.27,-0.51,54.06,5.06,12.6
2026-05-01 09:07:09,52.442753,-1.442566,122.2,17.79,74.7,17,1.37,-56.0,1.57,-0.38,53.39,5.49,12.2
2026-05-01 09:07:10,52.44291,-1.442751,120.9,19.64,74.6,17,1.16,-57.3,3.97,-0.24,52.64,4.03,12.1
2026-05-01 09:07:11,52.442925,-1.442445,122.7,14.71,73.6,11,1.23,-62.0,-2.36,1.52,52.06,7.71,12.7
2026-05-01 09:07:12,52.443202,-1.442408,121.0,20.3,74.1,14,1.13,-58.2,0.17,-0.27,52.51,5.24,11.1
2026-05-01 09:07:13,52.443401,-1.442239,119.8,19.68,74.1,11,1.05,-64.7,0.63,3.52,54.37,3.63,13.7
2026-05-01 09:07:14,52.443579,-1.44183,124.5,17.31,74.8,14,0.94,-61.2,0.77,0.2,54.56,2.78,10.0
2026-05-01 09:07:15,52.443536,-1.442112,121.8,18.82,74.5,15,1.04,-57.6,2.5,1.59,54.9,2.54,13.5
2026-05-01 09:07:16,52.443792,-1.441803,121.1,18.0,74.0,14,1.15,-63.8,2.44,1.21,52.44,4.5,12.0
2026-05-01 09:07:17,52.443591,-1.441648,117.4,19.84,74.5,12,1.23,-66.3,2.59,-0.05,53.58,3.27,13.0
2026-05-01 09:07:18,52.443659,-1.441452,117.4,19.47,74.8,13,1.35,-73.5,2.89,-0.88,55.28,6.51,12.4
2026-05-01 09:07:19,52.443924,-1.441418,120.6,15.9,74.8,16,1.13,-65.4,0.57,0.5,51.47,6.2,12.3
2026-05-01 09:07:20,52.444068,-1.441263,120.3,18.88,73.5,13,1.07,-60.9,0.17,0.77,52.2,4.95,12.6
2026-05-01 09:07:21,52.444126,-1.4412,118.8,17.69,74.3,10,0.98,-60.3,2.59,-0.86,52.99,2.23,12.8
2026-05-01 09:07:22,52.444023,-1.441,120.3,18.12,73.7,12,1.27,-62.5,1.05,0.25,54.87,2.99,11.7
2026-05-01 09:07:23,52.444321,-1.440928,123.2,16.91,74.8,13,1.41,-67.7,-0.36,1.85,55.03,5.88,13.0
2026-05-01 09:07:24,52.444299,-1.440698,121.4,20.62,74.7,15,1.39,-74.9,3.46,3.1,52.85,3.16,10.9
2026-05-01 09:07:25,52.444597,-1.440664,117.7,19.56,73.8,14,1.31,-67.5,4.09,1.28,50.42,5.68,12.0
2026-05-01 09:07:26,52.444666,-1.440456,119.8,16.89,73.8,14,1.3,-66.5,4.34,2.79,54.05,4.71,12.8
2026-05-01 09:07:27,52.444636,-1.440363,118.4,16.0,73.9,11,1.45,-66.6,2.28,-0.94,51.84,4.08,13.0
2026-05-01 09:07:28,52.444778,-1.440114,119.2,17.42,73.0,11,1.25,-61.9,2.94,1.05,50.82,2.95,12.5
2026-05-01 09:07:29,52.444824,-1.440099,119.2,18.65,74.2,17,1.3,-55.1,4.05,2.01,51.39,3.86,11.6
2026-05-01 09:07:30,52.445024,-1.440137,119.0,18.36,73.8,14,1.15,-64.4,1.04,-1.34,54.69,4.28,12.9
2026-05-01 09:07:31,52.445226,-1.4397,117.5,19.88,74.4,17,1.0,-66.1,3.67,-0.73,56.88,5.55,11.3
2026-05-01 09:07:32,52.445132,-1.439784,119.7,19.18,73.3,15,1.1,-66.3,2.41,2.61,54.35,2.67,13.8
2026-05-01 09:07:33,52.445381,-1.439625,118.9,19.45,73.5,14,1.2,-64.4,3.37,-1.46,54.82,3.61,11.9
2026-05-01 09:07:34,52.445377,-1.439486,114.1,18.49,73.0,11,1.21,-69.1,2.28,-2.01,56.88,4.07,10.5
2026-05-01 09:07:35,52.445451,-1.439155,124.1,15.92,73.3,13,1.49,-64.4,3.94,2.29,51.55,4.99,10.8
2026-05-01 09:07:36,52.44562,-1.439373,122.2,17.71,73.1,17,1.21,-62.7,2.34,1.8,55.8,2.64,12.0
2026-05-01 09:07:37,52.445627,-1.438712,119.2,19.59,74.2,17,1.38,-64.0,-0.23,0.65,54.85,2.03,12.1
2026-05-01 09:07:38,52.445775,-1.438787,120.0,17.92,73.3,10,1.13,-62.7,4.18,-0.07,56.13,5.01,14.0
2026-05-01 09:07:39,52.445811,-1.438737,117.7,18.75,73.6,11,1.15,-62.8,0.58,-0.66,54.15,1.72,11.0
2026-05-01 09:07:40,52.446227,-1.438631,123.4,17.52,73.3,15,1.0,-73.9,3.88,0.42,53.6,5.93,12.0
2026-05-01 09:07:41,52.446134,-1.438464,123.8,16.46,72.8,17,1.09,-61.8,1.86,2.37,55.64,3.77,10.9
2026-05-01 09:07:42,52.446161,-1.438307,120.3,17.81,73.3,13,1.28,-68.4,3.76,0.36,58.78,1.68,11.5
2026-05-01 09:07:43,52.446352,-1.438161,122.0,18.46,73.7,13,1.2,-70.5,3.7,3.25,57.32,3.28,13.7
2026-05-01 09:07:44,52.44642,-1.438037,120.4,17.02,72.7,13,1.34,-70.5,2.65,-1.35,54.7,4.57,10.9
2026-05-01 09:07:45,52.446509,-1.43795,117.3,17.65,73.7,12,1.23,-62.8,2.76,-0.03,53.16,3.2,12.6
2026-05-01 09:07:46,52.446693,-1.437845,119.2,16.59,72.8,12,1.15,-66.1,2.63,-0.56,52.59,4.03,12.4
2026-05-01 09:07:47,52.446807,-1.437707,120.3,19.68,73.0,16,1.52,-73.4,-1.02,-1.63,58.71,5.11,12.0
2026-05-01 09:07:48,52.446778,-1.437578,119.1,17.56,73.4,13,1.19,-62.6,2.18,-0.23,54.29,3.7,12.5
2026-05-01 09:07:49,52.446874,-1.437312,119.6,20.18,72.8,17,1.37,-72.2,0.33,0.63,55.67,2.59,10.8
2026-05-01 09:07:50,52.447004,-1.437232,119.8,20.29,73.1,15,1.14,-64.3,2.26,0.79,59.08,3.55,13.7
2026-05-01 09:07:51,52.446901,-1.437452,119.8,17.88,72.8,14,1.31,-63.8,0.29,3.26,53.33,6.12,13.9
2026-05-01 09:07:52,52.44708,-1.436959,120.1,16.49,73.0,15,1.34,-60.6,0.22,0.7,59.66,6.53,12.0
2026-05-01 09:07:53,52.447468,-1.436872,117.9,14.87,71.7,12,1.23,-56.1,4.41,1.73,56.29,0.97,14.4
2026-05-01 09:07:54,52.447596,-1.43676,118.6,15.79,72.0,11,0.85,-71.8,3.6,0.1,54.62,5.64,11.6
2026-05-01 09:07:55,52.447507,-1.436663,117.4,15.94,73.1,17,1.2,-65.3,1.99,2.52,56.54,4.38,12.4
2026-05-01 09:07:56,52.447689,-1.436379,122.0,20.07,73.3,16,1.38,-66.4,2.28,3.6,55.71,5.39,13.4
2026-05-01 09:07:57,52.447763,-1.436263,115.8,18.17,72.3,12,1.28,-62.8,1.63,0.8,58.16,3.17,11.5
2026-05-01 09:07:58,52.44814,-1.436301,122.3,18.58,72.6,14,1.27,-63.9,2.85,-1.49,56.1,1.35,10.6
2026-05-01 09:07:59,52.448044,-1.43605,122.8,14.67,72.8,10,0.94,-66.8,0.99,-0.82,53.7,4.88,10.4
2026-05-01 09:08:00,52.448019,-1.436054,119.4,16.2,72.9,16,1.09,-67.2,3.49,0.42,57.2,2.59,14.1
2026-05-01 09:08:01,52.448037,-1.435962,114.8,19.33,71.5,12,1.26,-70.6,1.62,0.68,55.05,1.92,11.5
2026-05-01 09:08:02,52.448072,-1.435753,119.3,18.43,72.0,15,1.26,-60.1,1.37,1.05,58.29,2.02,11.8
2026-05-01 09:08:03,52.448353,-1.435471,119.9,17.78,72.3,16,1.38,-62.7,2.03,0.69,55.62,4.9,10.9
2026-05-01 09:08:04,52.448357,-1.435328,118.0,18.85,72.7,17,1.18,-60.4,1.11,0.01,57.14,4.21,12.9
2026-05-01 09:08:05,52.44839,-1.435239,119.0,20.45,73.6,15,1.26,-66.6,2.49,-0.95,58.6,5.17,11.2
2026-05-01 09:08:06,52.448568,-1.435084,123.1,17.67,72.2,13,1.2,-68.3,1.19,0.6,57.93,5.0,11.5
2026-05-01 09:08:07,52.448624,-1.434972,121.3,18.1,71.6,13,1.05,-70.4,2.7,2.78,58.98,3.37,12.3
2026-05-01 09:08:08,52.449001,-1.434954,118.2,18.29,72.4,13,0.86,-63.2,3.82,1.53,59.96,3.89,10.9
2026-05-01 09:08:09,52.449021,-1.434713,116.8,21.59,72.8,16,1.26,-70.2,0.92,0.8,56.4,3.23,11.8
2026-05-01 09:08:10,52.449032,-1.434543,119.3,14.85,72.2,10,1.23,-55.8,1.8,1.54,58.71,3.68,13.4
2026-05-01 09:08:11,52.449281,-1.434414,119.6,19.02,71.6,14,1.11,-71.5,2.69,-0.56,52.3,2.55,12.4
2026-05-01 09:08:12,52.449241,-1.434237,121.0,17.83,72.5,17,0.96,-63.6,1.35,-0.76,59.57,4.59,12.1
2026-05-01 09:08:13,52.449247,-1.434152,118.9,18.85,72.3,16,1.29,-57.2,2.7,-1.12,58.6,5.61,12.2
2026-05-01 09:08:14,52.449585,-1.434054,121.0,17.01,71.4,11,1.16,-62.0,2.83,-0.19,57.35,2.78,11.6
2026-05-01 09:08:15,52.449587,-1.433849,123.9,17.93,72.1,17,1.28,-64.1,3.62,-0.63,60.07,5.92,14.0
2026-05-01 09:08:16,52.449529,-1.433825,121.6,19.07,72.3,15,1.48,-69.8,1.09,1.81,61.91,4.17,11.2
2026-05-01 09:08:17,52.449714,-1.433777,119.9,22.67,72.4,15,0.88,-71.9,0.59,-0.71,58.73,4.36,12.2
2026-05-01 09:08:18,52.449746,-1.433572,119.6,19.21,71.7,16,1.1,-61.1,1.54,-1.2,57.91,1.45,12.1
2026-05-01 09:08:19,52.449795,-1.433497,119.3,16.73,71.5,16,1.17,-57.5,0.55,2.91,60.25,1.29,13.0
2026-05-01 09:08:20,52.450126,-1.433356,122.4,17.36,72.3,14,1.42,-67.2,2.85,-0.68,57.37,4.22,13.1
2026-05-01 09:08:21,52.450324,-1.43317,118.7,17.32,71.0,10,0.95,-70.7,0.26,0.23,58.84,5.18,12.0
2026-05-01 09:08:22,52.450094,-1.433101,120.1,15.31,71.8,16,1.49,-77.3,5.5,0.68,62.72,2.99,12.3
2026-05-01 09:08:23,52.45039,-1.432919,120.1,17.5,70.8,13,1.22,-69.9,3.94,-1.71,60.52,6.51,12.3
2026-05-01 09:08:24,52.450369,-1.432945,119.0,19.1,72.0,14,1.19,-65.6,2.02,1.85,56.76,5.1,9.7
2026-05-01 09:08:25,52.450485,-1.4326,117.3,16.09,71.3,11,1.17,-57.0,3.3,0.96,57.05,2.64,10.4
2026-05-01 09:08:26,52.450575,-1.432488,120.6,19.57,72.0,13,1.13,-61.6,-0.46,2.34,61.08,4.05,11.4
2026-05-01 09:08:27,52.450647,-1.432437,119.9,18.73,71.6,11,1.36,-63.5,5.79,-1.02,62.61,7.72,11.4
2026-05-01 09:08:28,52.450839,-1.432156,121.0,16.9,70.7,12,1.04,-67.0,1.11,0.15,57.77,2.14,10.8
2026-05-01 09:08:29,52.450851,-1.431994,118.9,17.79,71.9,11,1.25,-67.9,1.82,0.06,62.02,4.79,12.7
2026-05-01 09:08:30,52.451061,-1.432115,122.4,20.4,72.0,13,1.14,-58.0,-0.78,0.4,63.9,3.52,12.0
2026-05-01 09:08:31,52.451129,-1.431897,118.2,19.1,71.6,12,1.09,-64.0,2.73,-2.18,65.14,5.06,11.8
2026-05-01 09:08:32,52.45121,-1.431765,123.4,18.01,70.7,13,1.59,-75.5,0.34,0.17,62.14,5.9,10.7
2026-05-01 09:08:33,52.451243,-1.431648,116.5,17.64,70.9,15,1.26,-68.4,2.15,-2.14,62.61,3.42,12.0
2026-05-01 09:08:34,52.451377,-1.431338,120.9,18.11,71.1,13,1.29,-69.3,1.18,0.54,57.45,5.68,9.4
2026-05-01 09:08:35,52.45161,-1.431307,121.0,17.23,70.6,12,1.37,-67.7,0.38,-3.19,66.04,7.33,11.8
2026-05-01 09:08:36,52.451685,-1.431181,118.4,14.84,71.8,11,0.99,-62.2,0.79,-2.78,60.81,4.1,12.1
2026-05-01 09:08:37,52.451637,-1.431221,120.8,21.06,70.9,15,1.46,-65.5,2.34,1.23,60.21,5.18,12.2
2026-05-01 09:08:38,52.451844,-1.430824,122.6,18.23,69.5,10,0.82,-65.4,0.08,-0.82,61.69,3.11,10.4
2026-05-01 09:08:39,52.45201,-1.430878,115.6,18.6,70.9,10,1.08,-58.4,0.88,-1.48,65.34,4.03,12.2
2026-05-01 09:08:40,52.451868,-1.430614,121.0,17.91,70.5,17,1.13,-68.5,2.99,1.91,66.86,3.73,11.0
2026-05-01 09:08:41,52.452189,-1.430459,115.0,16.9,70.6,10,1.29,-55.7,5.9,0.49,62.81,5.2,11.2
2026-05-01 09:08:42,52.452169,-1.430218,118.1,17.72,70.4,10,1.23,-68.4,2.72,1.31,64.68,5.81,12.7
2026-05-01 09:08:43,52.452392,-1.430351,123.3,15.6,71.0,14,1.17,-64.6,0.62,-0.25,62.89,3.84,14.0
2026-05-01 09:08:44,52.452359,-1.430389,118.8,21.42,71.1,10,1.2,-66.4,1.45,4.02,60.85,6.3,12.1
2026-05-01 09:08:45,52.452355,-1.429935,117.7,16.15,70.6,12,1.05,-64.4,2.05,-0.91,66.0,6.3,11.2
2026-05-01 09:08:46,52.452472,-1.42964,119.6,16.45,70.3,16,0.98,-62.8,1.48,2.62,61.92,5.27,12.2
2026-05-01 09:08:47,52.45274,-1.429563,124.1,17.34,70.4,10,1.31,-62.8,3.35,-0.09,66.35,3.23,12.9
2026-05-01 09:08:48,52.452861,-1.429532,116.3,19.93,70.4,13,1.3,-68.8,2.33,-2.48,66.0,3.08,12.6
2026-05-01 09:08:49,52.452845,-1.429469,117.9,18.02,69.9,16,1.44,-70.6,3.36,0.72,64.75,2.78,14.7
2026-05-01 09:08:50,52.453099,-1.429205,123.0,16.15,70.5,10,1.08,-52.5,1.53,0.47,67.3,5.42,11.3
2026-05-01 09:08:51,52.452969,-1.42925,123.7,19.88,70.4,16,1.3,-67.4,3.99,-1.58,68.23,2.18,12.3
2026-05-01 09:08:52,52.453229,-1.428972,119.8,19.1,70.9,11,1.16,-61.5,1.75,-1.38,63.53,5.02,13.5
2026-05-01 09:08:53,52.453214,-1.428835,117.5,18.81,70.7,12,1.38,-73.0,0.54,-0.04,62.39,2.38,13.5
2026-05-01 09:08:54,52.45337,-1.428646,124.2,19.07,69.7,12,1.35,-66.4,5.27,0.52,60.39,5.24,10.0
2026-05-01 09:08:55,52.45354,-1.428343,123.2,21.59,70.4,17,1.23,-65.6,-0.74,-3.71,68.73,4.03,12.0
2026-05-01 09:08:56,52.45355,-1.428446,121.4,21.28,69.5,16,1.15,-62.6,0.89,1.58,63.48,6.0,13.5
2026-05-01 09:08:57,52.453697,-1.428403,118.4,16.97,70.3,17,1.34,-78.6,1.06,-0.74,66.75,5.71,14.9
2026-05-01 09:08:58,52.453937,-1.428221,119.9,20.44,69.6,15,1.3,-64.2,5.76,-2.0,63.12,6.15,12.7
2026-05-01 09:08:59,52.453878,-1.428262,119.7,18.57,69.3,14,1.1,-70.7,4.71,1.41,67.8,6.19,11.6
2026-05-01 09:09:00,52.45412,-1.428021,120.7,18.75,69.9,13,1.0,-63.4,4.24,-0.04,63.44,4.22,11.0
2026-05-01 09:09:01,52.454023,-1.427859,122.9,15.46,68.4,16,1.16,-70.2,1.5,1.82,62.58,2.26,14.2
2026-05-01 09:09:02,52.454289,-1.427738,121.8,17.74,68.8,12,1.43,-69.3,5.64,0.66,64.67,2.42,12.7
2026-05-01 09:09:03,52.45448,-1.427536,117.8,16.78,69.6,17,1.37,-66.4,2.55,-0.0,64.14,0.87,11.2
2026-05-01 09:09:04,52.454189,-1.427501,122.8,19.24,69.6,11,1.03,-70.3,3.47,-0.23,66.52,2.37,11.8
2026-05-01 09:09:05,52.454457,-1.427173,120.6,19.61,69.4,10,1.02,-67.4,2.27,0.72,65.34,4.1,12.3
2026-05-01 09:09:06,52.454694,-1.427151,121.4,14.89,68.7,12,1.39,-71.0,1.93,-0.62,66.82,3.16,12.5
2026-05-01 09:09:07,52.454716,-1.427019,122.9,17.97,69.0,11,1.03,-74.2,1.62,-1.28,65.1,3.73,11.1
2026-05-01 09:09:08,52.454874,-1.426917,117.8,19.68,69.6,10,1.28,-59.9,1.69,0.91,64.47,4.74,11.4
2026-05-01 09:09:09,52.454876,-1.426736,119.9,17.72,69.7,14,1.11,-71.5,2.91,-0.22,64.76,3.54,10.3
2026-05-01 09:09:10,52.455045,-1.426535,118.9,19.09,69.3,12,1.44,-65.9,2.55,0.05,70.13,2.32,13.0
2026-05-01 09:09:11,52.455121,-1.426571,116.9,18.53,69.8,17,1.08,-61.2,1.95,1.63,66.61,3.92,11.7
2026-05-01 09:09:12,52.455354,-1.426417,120.7,18.51,69.4,12,1.37,-68.1,4.26,-0.17,62.32,2.65,12.5
2026-05-01 09:09:13,52.455362,-1.426248,125.0,17.59,68.8,16,1.23,-69.1,-2.45,0.02,65.36,3.59,13.4
2026-05-01 09:09:14,52.455471,-1.426219,116.3,16.18,69.0,16,1.24,-63.9,2.76,-0.9,66.72,6.01,12.2
2026-05-01 09:09:15,52.455496,-1.426033,119.9,16.32,68.4,11,0.9,-59.4,3.08,0.65,70.34,3.59,11.9
2026-05-01 09:09:16,52.455588,-1.425865,121.3,19.06,69.0,17,0.87,-70.8,3.72,0.52,68.82,6.66,12.2
2026-05-01 09:09:17,52.455694,-1.425596,120.2,18.03,69.5,15,1.17,-65.8,1.9,1.35,65.04,6.15,12.1
2026-05-01 09:09:18,52.455877,-1.425524,119.8,17.79,69.3,16,1.24,-73.7,2.31,-0.87,71.84,3.13,13.2
2026-05-01 09:09:19,52.455895,-1.425398,117.4,17.36,69.6,13,1.03,-67.0,3.48,-0.69,67.06,2.33,12.3
2026-05-01 09:09:20,52.456066,-1.425198,120.5,17.54,68.7,14,1.04,-64.8,4.24,1.19,69.74,3.92,11.5
2026-05-01 09:09:21,52.456345,-1.425164,118.5,19.57,69.5,13,1.28,-69.3,1.55,0.38,65.05,5.73,13.0
2026-05-01 09:09:22,52.456325,-1.424978,115.6,17.5,68.7,12,1.28,-67.3,2.4,-1.36,62.69,3.26,13.2
2026-05-01 09:09:23,52.456305,-1.424894,122.4,15.99,69.4,13,1.18,-72.0,4.52,1.96,64.79,5.36,10.7
2026-05-01 09:09:24,52.456558,-1.424723,121.9,19.12,68.7,10,1.32,-64.6,-1.19,-2.55,61.22,5.81,13.5
2026-05-01 09:09:25,52.456497,-1.424675,120.1,17.69,69.0,14,1.02,-59.7,0.96,1.18,72.07,2.84,12.4
2026-05-01 09:09:26,52.456434,-1.424727,120.5,18.05,69.3,13,1.15,-70.5,4.2,-1.9,68.39,2.99,12.3
2026-05-01 09:09:27,52.456637,-1.424363,122.1,20.41,68.4,10,1.45,-68.1,3.64,2.83,66.24,5.07,13.0
2026-05-01 09:09:28,52.456651,-1.424074,120.4,17.97,68.6,11,1.21,-62.5,2.78,-2.32,69.11,4.23,11.4
2026-05-01 09:09:29,52.456903,-1.42399,121.8,18.43,69.1,13,1.22,-58.9,1.33,1.73,68.7,2.97,13.0
2026-05-01 09:09:30,52.45704,-1.423853,119.4,16.23,68.3,14,1.55,-72.5,0.68,-0.12,69.69,3.47,11.6
2026-05-01 09:09:31,52.457306,-1.423692,122.6,17.67,67.7,10,0.99,-65.8,1.11,-0.55,70.98,3.89,10.5
2026-05-01 09:09:32,52.457271,-1.423674,120.6,18.91,69.4,13,1.32,-63.6,4.32,0.28,68.11,1.65,11.0
2026-05-01 09:09:33,52.457316,-1.423529,120.4,15.67,68.0,11,1.45,-65.5,1.06,0.95,67.05,5.15,12.6
2026-05-01 09:09:34,52.457521,-1.423477,117.5,18.3,68.3,13,1.15,-77.4,2.15,-1.36,70.58,3.28,11.1
2026-05-01 09:09:35,52.457317,-1.423314,120.6,18.15,68.7,10,1.33,-62.5,0.87,-1.22,70.65,0.0,13.6
2026-05-01 09:09:36,52.457662,-1.423087,118.3,18.06,67.8,13,1.05,-57.4,3.26,0.97,69.37,3.96,13.2
2026-05-01 09:09:37,52.457816,-1.422895,118.7,19.56,67.6,14,1.1,-64.4,1.19,-2.56,73.64,2.89,13.3
2026-05-01 09:09:38,52.457691,-1.422896,118.4,18.5,68.1,12,1.26,-70.2,1.85,-0.88,68.53,6.53,12.1
2026-05-01 09:09:39,52.458053,-1.422794,117.9,20.22,67.1,17,1.32,-67.6,-0.53,4.56,67.73,3.12,12.3
2026-05-01 09:09:40,52.458073,-1.422615,124.2,16.51,67.8,17,1.37,-56.2,-0.42,-1.45,70.48,2.35,10.8
2026-05-01 09:09:41,52.458097,-1.422422,122.7,18.2,68.0,10,1.44,-60.5,2.01,1.72,68.42,4.76,13.0
2026-05-01 09:09:42,52.458302,-1.422493,123.8,18.13,67.7,10,1.19,-61.8,0.01,-0.88,70.88,3.01,12.4
2026-05-01 09:09:43,52.458566,-1.422444,117.6,16.4,67.0,10,1.38,-63.2,5.16,0.76,68.34,2.83,12.6
2026-05-01 09:09:44,52.458457,-1.422136,120.1,19.43,68.5,10,1.15,-68.3,-1.09,0.98,69.33,4.76,13.7
2026-05-01 09:09:45,52.458564,-1.42207,117.4,21.49,67.7,13,1.34,-66.0,0.8,1.69,74.03,2.44,11.4
2026-05-01 09:09:46,52.458593,-1.421865,118.6,17.97,68.4,14,1.23,-65.4,2.03,-0.3,69.56,1.81,11.9
2026-05-01 09:09:47,52.458654,-1.421696,118.2,18.76,67.5,17,1.27,-62.3,1.45,2.98,68.89,6.59,12.3
2026-05-01 09:09:48,52.458922,-1.421593,122.5,18.13,67.1,11,1.26,-57.5,0.34,-0.88,72.95,4.87,11.1
2026-05-01 09:09:49,52.458854,-1.421269,119.2,16.93,67.6,17,0.96,-59.4,0.56,0.35,68.63,3.6,11.8
2026-05-01 09:09:50,52.459047,-1.421248,122.1,15.27,67.3,14,1.03,-72.1,0.51,0.37,69.46,3.99,12.5
2026-05-01 09:09:51,52.459092,-1.421117,121.2,16.94,66.8,10,1.22,-63.9,1.57,-1.68,72.12,4.76,11.7
2026-05-01 09:09:52,52.459287,-1.420952,124.6,15.91,68.1,15,0.95,-61.3,4.93,-0.43,72.96,5.46,13.3
2026-05-01 09:09:53,52.459373,-1.420994,117.0,20.56,67.0,13,1.32,-61.9,2.12,0.24,73.65,2.87,10.5
2026-05-01 09:09:54,52.459543,-1.420643,122.5,17.83,66.3,15,1.33,-68.1,3.77,-0.65,69.83,4.55,13.1
2026-05-01 09:09:55,52.459489,-1.420621,122.3,17.48,67.9,13,1.25,-50.4,2.76,3.66,72.64,3.24,12.7
2026-05-01 09:09:56,52.459613,-1.420413,118.1,19.33,66.9,10,1.03,-71.4,3.67,-1.26,70.64,3.72,11.4
2026-05-01 09:09:57,52.459642,-1.420454,122.0,16.32,66.8,13,1.41,-70.4,-2.2,1.77,70.48,4.24,11.1
2026-05-01 09:09:58,52.459795,-1.420369,120.7,16.85,66.2,10,1.51,-63.8,1.54,1.28,74.21,3.99,9.9
2026-05-01 09:09:59,52.459978,-1.419998,119.5,18.1,67.9,14,1.22,-54.4,3.96,-0.02,70.83,5.1,11.2
2026-05-01 09:10:00,52.460116,-1.419909,118.4,19.54,66.3,16,1.28,-69.2,1.14,-1.3,72.6,4.73,13.0
2026-05-01 09:10:01,52.460048,-1.419903,118.6,18.75,67.0,12,1.23,-66.3,4.64,-1.15,72.48,1.74,11.9
2026-05-01 09:10:02,52.460327,-1.419767,124.1,18.37,67.3,13,1.28,-59.6,4.23,-0.78,70.15,1.96,13.2
2026-05-01 09:10:03,52.460476,-1.419434,120.0,18.12,67.1,10,1.18,-65.1,1.3,-2.68,74.34,3.45,11.4
2026-05-01 09:10:04,52.460482,-1.419532,121.6,18.6,66.8,15,1.19,-66.7,1.25,-1.51,73.65,6.74,12.7
2026-05-01 09:10:05,52.460728,-1.419115,118.4,18.3,65.9,10,1.34,-62.2,0.48,-2.22,68.68,2.72,11.3
2026-05-01 09:10:06,52.460563,-1.419236,118.4,16.46,66.3,15,1.55,-63.6,1.06,2.02,73.32,3.69,11.0
2026-05-01 09:10:07,52.460616,-1.418949,122.2,18.07,66.7,17,0.99,-59.8,0.15,0.93,71.34,3.2,11.9
2026-05-01 09:10:08,52.460663,-1.418912,117.3,16.39,66.2,13,1.18,-58.5,2.64,1.18,75.2,3.17,11.3
2026-05-01 09:10:09,52.46109,-1.418686,119.2,18.12,66.7,11,1.02,-63.5,-0.18,0.88,70.24,4.27,10.5
2026-05-01 09:10:10,52.461106,-1.418667,120.1,17.28,66.9,15,1.44,-63.5,2.91,0.25,72.54,6.1,11.8
2026-05-01 09:10:11,52.461135,-1.418495,120.2,21.81,66.9,10,1.11,-63.9,2.94,2.19,74.09,4.68,12.1
